,Type,Name,Year,Director,Address,Lat,Lon,Borough,Number_of_Complaints,Style,Material,Use,Nbhd,Imdb,Tel,Url,System,Categories,Phone,Rating,Price,Zip_code
1,landmarks,140-154 W. 72 REALTY,1920,,140 WEST 72 STREET,40.77797454,-73.98015085,Manhattan,13,Queen Anne,Brownstone,"Mixed-use, commercial & residential",,,,,NA,NA,NA,NA,NA,NA
2,landmarks,THOMAS STREET LLC,1900,,90 GRAND STREET,40.72172475,-74.00206038,Manhattan,8,French,Stone,"Commercial, store and warehouse",,,,,NA,NA,NA,NA,NA,NA
3,landmarks,"NAHAR, KAMRUN",1930,,35-16 87 STREET,40.751604,-73.879924,Queens,8,neo-Tudor,Brick,"Outbuilding, garage",,,,,NA,NA,NA,NA,NA,NA
4,landmarks,GROVE EQUITIES,1900,,43 GROVE STREET,40.732829,-74.004272,Manhattan,7,neo-Grec,Flemish-Bond Brick,"Residential, single-family",,,,,NA,NA,NA,NA,NA,NA
5,landmarks,FAIR INTERIORS INC,1922,,37-55 82 STREET,40.749391,-73.884237,Queens,7,neo-Georgian,Brick,Commercial,,,,,NA,NA,NA,NA,NA,NA
6,landmarks,"CHELSEA SQUARE, LLC",1910,,436 WEST 20 STREET,40.745101,-74.003854,Manhattan,6,Italianate,Brick,Residential,,,,,NA,NA,NA,NA,NA,NA
7,landmarks,"CASTRO, PASTORA",1899,,109 NOBLE STREET,40.728583,-73.956181,Brooklyn,5,neo-Grec,Wood Frame,Residential,,,,,NA,NA,NA,NA,NA,NA
8,landmarks,177 WEST 83 ST HSG ET,1900,,177 WEST 83 STREET,40.785645,-73.9760412,Manhattan,5,neo-Grec,Brick,"Residential, multi-family",,,,,NA,NA,NA,NA,NA,NA
9,landmarks,70 LEFFERTS LLC,1899,,70 LEFFERTS PLACE,40.681257,-73.960614,Brooklyn,5,Italianate,Wood Clapboard,"Residential, single family",,,,,NA,NA,NA,NA,NA,NA
10,landmarks,"WILLIAMS, THEODORE S",1931,,384 VANDERBILT AVENUE,40.685709,-73.968364,Brooklyn,5,neo-Grec,Brownstone,Residential,,,,,NA,NA,NA,NA,NA,NA
11,landmarks,18 20 PARK 84TH CORP,1910,,20 EAST 84 STREET,40.7798298,-73.9604648,Manhattan,5,neo-Federal,Flemish-Bond Brick,"Residential, single-family",,,,,NA,NA,NA,NA,NA,NA
12,landmarks,233 BLEECKER STREET L,1920,,15 CARMINE STREET,40.7304748,-74.0025464,Manhattan,5,Italianate,Wood Frame,"Mixed-use, commercial & residential",,,,,NA,NA,NA,NA,NA,NA
13,landmarks,18 20 PARK 84TH CORP,1910,,20 EAST 84 STREET,40.7798298,-73.9604648,Manhattan,5,neo-Federal,Flemish-Bond Brick,"Residential, single-family",,,,,NA,NA,NA,NA,NA,NA
14,landmarks,"SAENNGARM, CHAT CHAI",1930,,35-56 87 STREET,40.751055,-73.879824,Queens,5,neo-Tudor,Brick,"Outbuilding, garage",,,,,NA,NA,NA,NA,NA,NA
15,landmarks,"THE A.J.D. BUILDING,",1910,,427 BROADWAY,40.7199862,-74.0015694,Manhattan,5,French Renaissance,Cast Iron,"Commercial, warehouse",,,,,NA,NA,NA,NA,NA,NA
16,landmarks,CHOLLA 893 LLC,2000,,893 BROADWAY,40.7387424,-73.9899928,Manhattan,5,Modern,Cast Iron,"Mixed-use, commercial & residential",,,,,NA,NA,NA,NA,NA,NA
17,landmarks,"APHIS REALTY, INC.",1910,,676 AVENUE OF THE AMER,40.7416112,-73.9933672,Manhattan,5,Modern,Brick,"Commercial, stores",,,,,NA,NA,NA,NA,NA,NA
18,landmarks,214 VAN BUREN LLC,1899,,33 CLIFTON PLACE,40.687768,-73.963199,Brooklyn,4,neo-Grec,Brownstone,Residential,,,,,NA,NA,NA,NA,NA,NA
19,landmarks,17 EAST 71 STREET LLC,1910,,17 EAST 71 STREET,40.771366,-73.96654,Manhattan,4,Queen Anne (original),Stone,Residential,,,,,NA,NA,NA,NA,NA,NA
20,landmarks,77 BLEECKER ST CORP,1930,,77 BLEECKER STREET,40.72687425,-73.995565,Manhattan,4,Contemporary,Steel Frame,"Commercial, stores",,,,,NA,NA,NA,NA,NA,NA
21,landmarks,EDMOND MARTIN REAL ES,1910,,16 CHRISTOPHER STREET,40.73386525,-74.0005085,Manhattan,4,neo-Grec,Brick,Residential,,,,,NA,NA,NA,NA,NA,NA
22,landmarks,"CLEMENTS, JACQUELINE",1899,,309 WEST 80 STREET,40.785151,-73.980937,Manhattan,4,Renaissance,Tan Brick,"Residential, single-family",,,,,NA,NA,NA,NA,NA,NA
23,landmarks,OSBORNE TENANTS CORP,1900,,205 WEST 57 STREET,40.765704,-73.980452,Manhattan,4,Renaissance Revival,Rusticated Stone,"Residential, multi family",,,,,NA,NA,NA,NA,NA,NA
24,landmarks,"BLOCK, EVYN",1899,,137 ST JAMES PLACE,40.685499,-73.964189,Brooklyn,4,Greek Revival,Brick,Residential,,,,,NA,NA,NA,NA,NA,NA
25,landmarks,"DJT ASSOCIATES, LLC",1930,,284 CARLTON AVENUE,40.688995,-73.972029,Brooklyn,4,Italianate,Brick,Residential,,,,,NA,NA,NA,NA,NA,NA
26,landmarks,105 WEST 72ND CONDOMI,1913,,105 WEST 72 STREET,40.77763,-73.979296,Manhattan,4,Stylized Churrigueresque,Brick,"Residential, multi-family",,,,,NA,NA,NA,NA,NA,NA
27,landmarks,ROTHSTEIN EDWARD,1901,,155 WEST 78 STREET,40.78192,-73.977504,Manhattan,4,neo-Grec,Brownstone,Residential,,,,,NA,NA,NA,NA,NA,NA
28,landmarks,"W SQUARED, LLC",2004,,92 LAIGHT STREET,40.722393,-74.010538,Manhattan,4,Romanesque Revival,Red Brick,"Commercial, warehouse",,,,,NA,NA,NA,NA,NA,NA
29,landmarks,NEW 1804 WASH CORP,1800,,49 IRVING PLACE,40.73584875,-73.987526,Manhattan,4,Italianate,Red Brick,Residential,,,,,NA,NA,NA,NA,NA,NA
30,landmarks,UPAM REALTY CORP,1931,,37-57 82 STREET,40.749388,-73.884234,Queens,4,neo-Georgian,Brick,Commercial,,,,,NA,NA,NA,NA,NA,NA
31,landmarks,"MINCHALA, SEGUNDO MAN",1930,,35-51 87 STREET,40.751124,-73.879813,Queens,4,neo-Georgian,Red Brick,Residential,,,,,NA,NA,NA,NA,NA,NA
32,landmarks,77 BLEECKER ST CORP,1930,,77 BLEECKER STREET,40.72687425,-73.995565,Manhattan,4,Contemporary,Steel Frame,"Commercial, stores",,,,,NA,NA,NA,NA,NA,NA
33,landmarks,7 WEST 82,1890,,7 WEST 82 STREET,40.782945,-73.971766,Manhattan,4,Queen Anne,Brownstone,Residential,,,,,NA,NA,NA,NA,NA,NA
34,landmarks,60 HUDSON OWNERS LLC,1930,,56 HUDSON STREET,40.717876,-74.008939,Manhattan,3,Art Deco,Steel Frame,"Commercial, offices",,,,,NA,NA,NA,NA,NA,NA
35,landmarks,GLORIA PATTON,1899,,205 GREENE AVENUE,40.686962,-73.963715,Brooklyn,3,neo-Grec,Brownstone,Residential,,,,,NA,NA,NA,NA,NA,NA
36,landmarks,175 WEST 88 T LLC,1901,,175 WEST 88 STREET,40.788613,-73.973147,Manhattan,3,Renaissance Revival,Stone,Residential,,,,,NA,NA,NA,NA,NA,NA
37,landmarks,"ROYER, THEODORE W",1910,,268 CLERMONT AVENUE,40.690024,-73.970248,Brooklyn,3,Greek Revival,Wood Frame,Residential,,,,,NA,NA,NA,NA,NA,NA
38,landmarks,"WALLACE, COLETTE",1910,,73 BAINBRIDGE STREET,40.680624,-73.934136,Brooklyn,3,neo-Renaissance,Stone,Residential,,,,,NA,NA,NA,NA,NA,NA
39,landmarks,"CONIGLIO, ANTOINETTE",1900,,162 WEST 88 STREET,40.788495,-73.972912,Manhattan,3,Romanesque,Brownstone,Residential,,,,,NA,NA,NA,NA,NA,NA
40,landmarks,GARFIELD LAWRENCE 714,1940,,714 MADISON AVENUE,40.766262,-73.969474,Manhattan,3,neo-Grec,Brownstone,Residential,,,,,NA,NA,NA,NA,NA,NA
41,landmarks,PARTITA PARTNERS,1930,,964 LEXINGTON AVENUE,40.769356,-73.962995,Manhattan,3,Italianate (original),Brownstone,Residential,,,,,NA,NA,NA,NA,NA,NA
42,landmarks,AMERICAN YOUTH HOSTEL,1950,,881 AMSTERDAM AVENUE,40.798838,-73.966865,Manhattan,3,neo-Grec,Red Brick,"Institutional, charitable, nursing home",,,,,NA,NA,NA,NA,NA,NA
43,landmarks,THE PERMANENT MISSION,1920,,39 EAST 74 STREET,40.77296,-73.96412,Manhattan,3,Queen Anne (original),Brick,Residential,,,,,NA,NA,NA,NA,NA,NA
44,landmarks,130 WEST 70 LLC,1910,,130 WEST 70 STREET,40.77646467,-73.980621,Manhattan,3,Queen Anne,Brownstone,Residential,,,,,NA,NA,NA,NA,NA,NA
45,landmarks,"DIJI, AUGUSTINE",1930,,216 GREENE AVENUE,40.687065,-73.962691,Brooklyn,3,neo-Grec,Brownstone,Residential,,,,,NA,NA,NA,NA,NA,NA
46,landmarks,"107 WEST 69TH STREET,",1910,,107 WEST 69 STREET,40.775668,-73.980622,Manhattan,3,Romanesque Revival,Brownstone,Residential,,,,,NA,NA,NA,NA,NA,NA
47,landmarks,"SPOLLEN, JIE",1926,,10 ST NICHOLAS PLACE,40.827292,-73.942367,Manhattan,3,Renaissance,Rough-faced Stone,"Residential, single family",,,,,NA,NA,NA,NA,NA,NA
48,landmarks,100 WEST 74TH STREET,1920,,100 WEST 74 STREET,40.77862367,-73.978013,Manhattan,3,Renaissance Revival,Brick,"Residential, multi-family",,,,,NA,NA,NA,NA,NA,NA
49,landmarks,METROPOLITIAN TIMES S,1900,,123 WEST 44 STREET,40.756491,-73.983977,Manhattan,3,Northern Gothic,Brick,"Commercial, hotel",,,,,NA,NA,NA,NA,NA,NA
50,landmarks,WALSAM SIXTH AVE CO,1900,,389 AVENUE OF THE AMER,40.733118,-73.999935,Manhattan,3,Federal (original),Brick,Residential,,,,,NA,NA,NA,NA,NA,NA
51,landmarks,"KULAHLIOGLU, EROL",1935,,34-32 83 STREET,40.752846,-73.883939,Queens,3,neo-Georgian,Red Brick,"Outbuilding, garage",,,,,NA,NA,NA,NA,NA,NA
52,landmarks,"BELUGA PROPERTIES, LL",1899,,241 WEST 11 STREET,40.736277,-74.002923,Manhattan,3,Italianate,Brick,Residential,,,,,NA,NA,NA,NA,NA,NA
53,landmarks,OWNER / AGENT,1915,,220 WEST BROADWAY,40.71916567,-74.00655333,Manhattan,3,Queen Anne,Cast Iron,"Commercial, warehouse",,,,,NA,NA,NA,NA,NA,NA
54,landmarks,"CHATOV, L.L.C.",1914,,68 JAY STREET,40.70284167,-73.986676,Brooklyn,3,Queen Anne,Brick,"Industrial, factory",,,,,NA,NA,NA,NA,NA,NA
55,landmarks,WILLIAM GOTTLIEB,1915,,165 WAVERLY PLACE,40.73350633,-74.00122333,Manhattan,3,Greek Revival,Brick,"Civic, hospital",,,,,NA,NA,NA,NA,NA,NA
56,landmarks,MARC SALIH,1930,,35-37 86 STREET,40.751827,-73.880887,Queens,3,neo-Georgian,Brick,"Outbuilding, garage",,,,,NA,NA,NA,NA,NA,NA
57,landmarks,"GUIRACOCHA, PIEDAD",1935,,34-44 83 STREET,40.752563,-73.883889,Queens,3,neo-Georgian,Red Brick,Residential,,,,,NA,NA,NA,NA,NA,NA
58,landmarks,895 BROADWAY OWNER LL,1915,,895 BROADWAY,40.73886133,-73.989861,Manhattan,3,neo-Renaissance,Limestone,"Commercial, department store",,,,,NA,NA,NA,NA,NA,NA
59,landmarks,ELLIANA 27 E. 92 LLC,1910,,1296 MADISON AVENUE,40.78484867,-73.95634367,Manhattan,3,Queen Anne,Brick,Residential,,,,,NA,NA,NA,NA,NA,NA
60,landmarks,"PELATTI, GREG",1899,,365 DECATUR STREET,40.681904,-73.929535,Brooklyn,3,Italianate,Brick,Residential,,,,,NA,NA,NA,NA,NA,NA
61,landmarks,"STRUGATZ, DONNA",1908,,14 WEST 4 STREET,40.72818433,-73.994832,Manhattan,3,Italianate,Brick,"Residential, multi-family",,,,,NA,NA,NA,NA,NA,NA
62,landmarks,"GEBALLE , RACHEL DINE",1899,,590 11 STREET,40.664159,-73.979433,Brooklyn,3,Romanesque Revival,Brownstone,Residential,,,,,NA,NA,NA,NA,NA,NA
63,landmarks,MARTINEZ MANUEL,1910,,193 ATLANTIC AVENUE,40.689934,-73.993217,Brooklyn,3,Modern,Brick,"Mixed-use, commercial & residential",,,,,NA,NA,NA,NA,NA,NA
64,landmarks,W & W REALTY ASSOCIAT,1926,,51 7 AVENUE,40.731418,-74.004048,Manhattan,3,"Arts & Crafts, altered",Brick,"Residential, multi-family",,,,,NA,NA,NA,NA,NA,NA
65,landmarks,WEST EIGHTIES GROUP I,1940,,494 AMSTERDAM AVENUE,40.78637833,-73.97616867,Manhattan,3,Queen Anne,Brick,"Residential, multi-family",,,,,NA,NA,NA,NA,NA,NA
66,landmarks,10TH ST. WEST VILLAGE,1910,,130 WEST 10 STREET,40.734636,-74.000263,Manhattan,3,Greek Revival,Brick,Residential,,,,,NA,NA,NA,NA,NA,NA
67,landmarks,TAYLOR COLE PROPERTIE,1910,,67 MIDWOOD STREET,40.659633,-73.958472,Brooklyn,3,neo-Renaissance,Roman Brick,Residential,,,,,NA,NA,NA,NA,NA,NA
68,landmarks,"SCHWISTER, DANA",1930,,34-49 84 STREET,40.752612,-73.882925,Queens,3,neo-Georgian,Red Brick,Residential,,,,,NA,NA,NA,NA,NA,NA
69,landmarks,24 WEST 70TH ST. APT.,1910,,24 WEST 70 STREET,40.775275,-73.977795,Manhattan,2,Romanesque,Brownstone,Residential,,,,,NA,NA,NA,NA,NA,NA
70,landmarks,MOHAWK HOUSING ASSOC,1905,,379 WASHINGTON AVENUE,40.687497,-73.9651465,Brooklyn,2,Romanesque Revival,Brownstone,"Residential, multi-family",,,,,NA,NA,NA,NA,NA,NA
71,landmarks,LYNTON MICHAEL M,1900,,48 WEST 70 STREET,40.775484,-73.978293,Manhattan,2,neo-Grec,Brick,Residential,,,,,NA,NA,NA,NA,NA,NA
72,landmarks,ELK 300 BLEEKER LLC,1900,,300 BLEECKER STREET,40.73256,-74.003771,Manhattan,2,Federal (late)(original),Flemish-Bond Brick,"Mixed-use, commercial & residential",,,,,NA,NA,NA,NA,NA,NA
73,landmarks,"HURTADO, PAOLA",1901,,860 ST JOHNS PLACE,40.671588,-73.949542,Brooklyn,2,Renaissance Revival,Rustic Brick,Residential,,,,,NA,NA,NA,NA,NA,NA
74,landmarks,BLUE WATER HEAD HOLDI,1910,,872 LEXINGTON AVENUE,40.766167,-73.965322,Manhattan,2,Italianate (original),Stucco,"Residential, multi-family",,,,,NA,NA,NA,NA,NA,NA
75,landmarks,105-115 WEST 74TH ST,1910,,113 WEST 74 STREET,40.778997,-73.978444,Manhattan,2,neo-Grec,Brick,Residential,,,,,NA,NA,NA,NA,NA,NA
76,landmarks,"CHEN, RUI",1935,,34-28 88 STREET,40.753407,-73.879304,Queens,2,neo-Georgian,Red Brick,Residential,,,,,NA,NA,NA,NA,NA,NA
77,landmarks,BRILL MARCIA,1899,,110 WEST WASHINGTON PLCE,40.73256,-74.001028,Manhattan,2,Queen Anne,Flemish-Bond Brick,Residential,,,,,NA,NA,NA,NA,NA,NA
78,landmarks,"MORTENSON, RAY",1899,,24 BANK STREET,40.736988,-74.002631,Manhattan,2,Gothic Revival,Brick,Residential,,,,,NA,NA,NA,NA,NA,NA
79,landmarks,"WOODRUFF, NANCY A",1899,,891 UNION STREET,40.67394,-73.974091,Brooklyn,2,Queen Anne,Brick,Residential,,,,,NA,NA,NA,NA,NA,NA
80,landmarks,1125 LORIMER ST HSNG,1949,,1125 LORIMER STREET,40.728444,-73.9544705,Brooklyn,2,neo-Federal,Red Brick,"Residential, multi-family",,,,,NA,NA,NA,NA,NA,NA
81,landmarks,ERICA LINDSAY ASSOC,1905,,309 WASHINGTON AVENUE,40.6895695,-73.9660325,Brooklyn,2,neo-Renaissance Revival,Rock-faced Brownstone,"Residential, multi-family",,,,,NA,NA,NA,NA,NA,NA
82,landmarks,ATLANTIC HENRY CONDOM,1900,,119 ATLANTIC AVENUE,40.690846,-73.996509,Brooklyn,2,Romanesque Revival,Brick,"Mixed-use, commercial & residential",,,,,NA,NA,NA,NA,NA,NA
83,landmarks,140-142 WEST SEVENTIE,1900,,142 WEST 70 STREET,40.776527,-73.980766,Manhattan,2,Queen Anne,Brownstone,Residential,,,,,NA,NA,NA,NA,NA,NA
84,landmarks,KHEDOURI K EZAIR CORP,1920,,905 MADISON AVENUE,40.772252,-73.965077,Manhattan,2,Queen Anne (original),Stucco,Residential,,,,,NA,NA,NA,NA,NA,NA
85,landmarks,HENRY A. PINCUS TRUST,1915,,311 WEST 4 STREET,40.737221,-74.003785,Manhattan,2,neo-Grec,Flemish-Bond Brick,Residential,,,,,NA,NA,NA,NA,NA,NA
86,landmarks,YOUNG ISRAEL OF JACKS,1930,,35-36 87 STREET,40.75133,-73.879874,Queens,2,neo-Tudor,Brick,Residential,,,,,NA,NA,NA,NA,NA,NA
87,landmarks,"FEBBRARO, JOANNE L",1930,,205 38 ROAD,40.77173,-73.751822,Queens,2,Beaux-Arts,Wood Frame,"Residential, single-family",,,,,NA,NA,NA,NA,NA,NA
88,landmarks,17 CADMAN PLAZA WEST,1925,,17 OLD FULTON STREET,40.702601,-73.993663,Brooklyn,2,Italianate,Brick,"Mixed-use, commercial & residential",,,,,NA,NA,NA,NA,NA,NA
89,landmarks,JAY HOUSING CORP,1915,,13 JAY STREET,40.718043,-74.009827,Manhattan,2,neo-Grec,Cast Iron,"Commercial, store and lofts",,,,,NA,NA,NA,NA,NA,NA
90,landmarks,"110 EAST 73RD STREET,",1899,,110 EAST 73 STREET,40.771544,-73.962763,Manhattan,2,neo-Renaissance,Red Brick,Residential,,,,,NA,NA,NA,NA,NA,NA
91,landmarks,"158 EASTMAN, LLC",1900,,449 WEST 22 STREET,40.746539,-74.003483,Manhattan,2,French Second Empire,Brownstone,Residential,,,,,NA,NA,NA,NA,NA,NA
92,landmarks,"MURPHY, EMMA",1910,,157 PROSPECT PLACE,40.678178,-73.971273,Brooklyn,2,Second Empire,Brownstone,Residential,,,,,NA,NA,NA,NA,NA,NA
93,landmarks,NEW YORK FRENCH SOUND,1927,,547 5 AVENUE,40.755617,-73.979318,Manhattan,2,Near Eastern,Steel Frame,"Commercial, offices",,,,,NA,NA,NA,NA,NA,NA
94,landmarks,LOWREN MANAGEMENT COR,1905,,691 NOSTRAND AVENUE,40.673687,-73.950128,Brooklyn,2,Colonial Revival,Brick,"Residential, multi-family",,,,,NA,NA,NA,NA,NA,NA
95,landmarks,"POLLOCK, JANE",1910,,133 WEST 78 STREET,40.781733,-73.97706,Manhattan,2,Romanesque Revival,Stone,Residential,,,,,NA,NA,NA,NA,NA,NA
96,landmarks,AP TENANTS CORPORATIO,1900,,124 ATLANTIC AVENUE,40.689918,-73.99585,Brooklyn,2,French Second Empire,Stone,Commercial,,,,,NA,NA,NA,NA,NA,NA
97,landmarks,"POM HOLDINGS, LLC",1930,,1879 PUTNAM AVENUE,40.703042,-73.903902,Queens,2,Romanesque Revival,Yellow Brick,"Residential, multi-family",,,,,NA,NA,NA,NA,NA,NA
98,landmarks,910 FIFTH AVE,1959,,910 5 AVENUE,40.772415,-73.966525,Manhattan,2,neo-Italianate Renaissance (original),White Brick,"Residential, multi-family",,,,,NA,NA,NA,NA,NA,NA
99,landmarks,"231 GREENE AVENUE, LL",1905,,231 GREENE AVENUE,40.687082,-73.962695,Brooklyn,2,Italianate,Brownstone,"Mixed-use, commercial & residential",,,,,NA,NA,NA,NA,NA,NA
100,landmarks,200 FIFTH OWNER LLC,1920,,23 WEST 23 STREET,40.741975,-73.99056,Manhattan,2,Late-19th century Commercial,Brick,Residential,,,,,NA,NA,NA,NA,NA,NA
101,landmarks,"KENNY, MARIA SANABRIA",1901,,491 13 STREET,40.662639,-73.979739,Brooklyn,2,Italian Renaissance,Not determined,Residential,,,,,NA,NA,NA,NA,NA,NA
102,landmarks,"KACZOR, MAREK",1931,,832 MANHATTAN AVENUE,40.728577,-73.953507,Brooklyn,2,Art Deco,Brick,"Mixed-use, commercial & residential",,,,,NA,NA,NA,NA,NA,NA
103,landmarks,COLUMBIA GRAMMAR SCHO,1900,,20 WEST 94 STREET,40.790689,-73.96642,Manhattan,2,Romanesque Revival,Brick,Residential,,,,,NA,NA,NA,NA,NA,NA
104,landmarks,MICHAEL BAUM LLC,1894,,419 LAFAYETTE STREET,40.728789,-73.992344,Manhattan,2,Renaissance Revival,Steel,"Commercial, warehouse",,,,,NA,NA,NA,NA,NA,NA
105,landmarks,30 WEST 76TH STREET R,1974,,30 WEST 76 STREET,40.779221,-73.975079,Manhattan,2,French neo-Grec,Brownstone,Residential,,,,,NA,NA,NA,NA,NA,NA
106,landmarks,"LIANNE S. TOWBES, TRU",1901,,858 CARROLL STREET,40.671766,-73.972675,Brooklyn,2,Romanesque Revival,Brownstone,Residential,,,,,NA,NA,NA,NA,NA,NA
107,landmarks,777 MADISON CONDOMINI,1907,,45 EAST 66 STREET,40.76793,-73.9679655,Manhattan,2,Gothic,Red Brick,"Residential, multi-family",,,,,NA,NA,NA,NA,NA,NA
108,landmarks,135 ST JAMES PLACE LL,1930,,135 ST JAMES PLACE,40.68554,-73.964196,Brooklyn,2,Greek Revival,Brick,Residential,,,,,NA,NA,NA,NA,NA,NA
109,landmarks,MOHAWK HOUSING ASSOC,1905,,379 WASHINGTON AVENUE,40.687497,-73.9651465,Brooklyn,2,Romanesque Revival,Brownstone,"Residential, multi-family",,,,,NA,NA,NA,NA,NA,NA
110,landmarks,PIERPONT MORGAN LIBRA,1900,,229 MADISON AVENUE,40.749571,-73.981629,Manhattan,2,neo-Renaissance,Brownstone,"Residential, single family",,,,,NA,NA,NA,NA,NA,NA
111,landmarks,REF DUTCH CH,1920,,890 FLATBUSH AVENUE,40.650125,-73.958654,Brooklyn,2,Georgian,Manhattan Schist,"Religious, church, Dutch Reformed",,,,,NA,NA,NA,NA,NA,NA
112,landmarks,"TSUI, CURTIS KAM-TIN",1930,,34-21 84 STREET,40.753122,-73.883018,Queens,2,neo-Georgian,Red Brick,Residential,,,,,NA,NA,NA,NA,NA,NA
113,landmarks,NORMANDY OWNERS CORP,1939,,140 RIVERSIDE DRIVE,40.790374,-73.979596,Manhattan,2,Art Moderne,Beige Brick,"Residential, multi-family",,,,,NA,NA,NA,NA,NA,NA
114,landmarks,NEW YORK UNIVERSITY,1890,,19 WASHINGTON SQUARE N,40.732002,-73.997566,Manhattan,2,Italianate,Brick,Residential,,,,,NA,NA,NA,NA,NA,NA
115,landmarks,570 PARK AVENUE CORP,1916,,570 PARK AVENUE,40.765496,-73.968431,Manhattan,2,English influences,Stone,"Residential, multi-family",,,,,NA,NA,NA,NA,NA,NA
116,landmarks,ALLEN GLEN,1899,,217 GREENE AVENUE,40.687033,-73.96312,Brooklyn,2,neo-Grec,Brownstone,Residential,,,,,NA,NA,NA,NA,NA,NA
117,landmarks,148 HOYT ST RLTY CO,1931,,148 HOYT STREET,40.685775,-73.988361,Brooklyn,2,Romanesque,Brick,"Mixed-use, commercial & residential",,,,,NA,NA,NA,NA,NA,NA
118,landmarks,WASHINGTON B C STUDIO,1915,,451 WASHINGTON STREET,40.7240155,-74.010013,Manhattan,2,Romanesque Revival,Brick,"Industrial, warehouse",,,,,NA,NA,NA,NA,NA,NA
119,landmarks,"HRISTOVSKY, ROXANN E",1930,,35-19 87 STREET,40.751555,-73.879892,Queens,2,neo-Georgian,Red Brick,Residential,,,,,NA,NA,NA,NA,NA,NA
120,landmarks,"SANDAR, MA",1925,,35-48 88 STREET,40.75106,-73.878875,Queens,2,neo-Georgian,Brick,Residential,,,,,NA,NA,NA,NA,NA,NA
121,landmarks,20 BOND OWNERS CORP,1925,,20 BOND STREET,40.726472,-73.993762,Manhattan,2,Renaissance Revival,Brick,"Commercial, store and lofts",,,,,NA,NA,NA,NA,NA,NA
122,landmarks,"420-428 AMSTERDAM,",1910,,420 AMSTERDAM AVENUE,40.783978,-73.977731,Manhattan,2,Renaissance Revival,Brick,"Residential, multi-family",,,,,NA,NA,NA,NA,NA,NA
123,landmarks,OWNER / AGENT,1880,,107 WEST 82 STREET,40.7841565,-73.9746415,Manhattan,2,Queen Anne,Brick,"Residential, multi-family",,,,,NA,NA,NA,NA,NA,NA
124,landmarks,OWNER / AGENT,1931,,581A 6 STREET,40.667041,-73.976598,Brooklyn,2,Georgian,Brick,"Residential, multi-family",,,,,NA,NA,NA,NA,NA,NA
125,landmarks,66 W 84 ST OWNERS COR,1900,,66 WEST 84 STREET,40.7848375,-73.972659,Manhattan,2,Romanesque Revival,Brick,"Residential, multi-family",,,,,NA,NA,NA,NA,NA,NA
126,landmarks,"IBANEZ, TOMAS",1935,,34-44 84 STREET,40.752727,-73.882968,Queens,2,neo-Tudor,Brick,Residential,,,,,NA,NA,NA,NA,NA,NA
127,landmarks,JAMES A NAJJAR,1901,,490 13 STREET,40.66265,-73.979804,Brooklyn,2,French Renaissance,Not determined,Residential,,,,,NA,NA,NA,NA,NA,NA
128,landmarks,ATLANTIC APARTMENTS,1900,,94 ATLANTIC AVENUE,40.690939,-73.996895,Brooklyn,2,neo-Grec,Brick,Residential,,,,,NA,NA,NA,NA,NA,NA
129,landmarks,DREYFUS 100% TREASURY,1910,,52 WEST 70 STREET,40.775519,-73.978373,Manhattan,2,neo-Grec,Brick,Residential,,,,,NA,NA,NA,NA,NA,NA
130,landmarks,SAMTON EMILY S.,1901,,161 WEST 88 STREET,40.788492,-73.972861,Manhattan,2,Romanesque Revival,Brownstone,Residential,,,,,NA,NA,NA,NA,NA,NA
131,landmarks,46 WEST 70TH STREET L,1910,,46 WEST 70 STREET,40.775467,-73.97825,Manhattan,2,neo-Grec,Brick,Residential,,,,,NA,NA,NA,NA,NA,NA
132,landmarks,VUJNOVICH GEORGE M,1930,,35-45 87 STREET,40.751203,-73.879827,Queens,2,neo-Georgian,Red Brick,"Outbuilding, garage",,,,,NA,NA,NA,NA,NA,NA
133,landmarks,COLUMBIA GRAMMAR SCHO,1900,,20 WEST 94 STREET,40.790689,-73.96642,Manhattan,2,Romanesque Revival,Brick,Residential,,,,,NA,NA,NA,NA,NA,NA
134,landmarks,MOHAWK HOUSING ASSOC,1905,,379 WASHINGTON AVENUE,40.687497,-73.9651465,Brooklyn,2,Romanesque Revival,Brownstone,"Residential, multi-family",,,,,NA,NA,NA,NA,NA,NA
135,landmarks,"TSUI, CURTIS KAM-TIN",1930,,34-21 84 STREET,40.753122,-73.883018,Queens,2,neo-Georgian,Red Brick,"Outbuilding, garage",,,,,NA,NA,NA,NA,NA,NA
136,landmarks,"BATTLE ENTERPRISES, L",1926,,450 WEST 145 STREET,40.824815,-73.946626,Manhattan,2,Romanesque Revival,Brownstone,Residential,,,,,NA,NA,NA,NA,NA,NA
137,landmarks,LINCOLN PARK REALTYCO,1920,,40 WEST 70 STREET,40.775415,-73.978127,Manhattan,2,neo-Grec,Brick,Residential,,,,,NA,NA,NA,NA,NA,NA
138,landmarks,"147 W. 85TH ST., LLC",1910,,147 WEST 85 STREET,40.786385,-73.974025,Manhattan,2,Romanesque,Brick,Residential,,,,,NA,NA,NA,NA,NA,NA
139,landmarks,"B.I.G., LLC",1910,,59 WEST 70 STREET,40.775593,-73.978506,Manhattan,2,Queen Anne,Brick,Residential,,,,,NA,NA,NA,NA,NA,NA
140,landmarks,"ASHAR, RACHITA S",1930,,34-36 85 STREET,40.753091,-73.882087,Queens,2,neo-Georgian,Red Brick,Residential,,,,,NA,NA,NA,NA,NA,NA
141,landmarks,134 W 70 ST CORP,1920,,134 WEST 70 STREET,40.776483,-73.980665,Manhattan,2,Queen Anne,Brownstone,Residential,,,,,NA,NA,NA,NA,NA,NA
142,landmarks,"928 PRESIDENT STREET,",1920,,928 PRESIDENT STREET,40.672299,-73.97199,Brooklyn,2,neo-Grec,Brownstone,Residential,,,,,NA,NA,NA,NA,NA,NA
143,landmarks,"FILACOURIS, ANDONIS",1920,,240-02 POPLAR STREET,40.768685,-73.746519,Queens,2,neo-Colonial,Wood Frame,"Residential, single-family",,,,,NA,NA,NA,NA,NA,NA
144,landmarks,ASK PROPERTY HOLDINGS,1900,,7 CORNELIA STREET,40.731616,-74.001634,Manhattan,2,Spanish Revival,Brick,Residential,,,,,NA,NA,NA,NA,NA,NA
145,landmarks,WAVERLY DEVELOPMENTAS,1915,,16 BANK STREET,40.737026,-74.002371,Manhattan,2,Gothic Revival,Brick,Residential,,,,,NA,NA,NA,NA,NA,NA
146,landmarks,COLUMBIA GRAMMAR SCHO,1900,,20 WEST 94 STREET,40.790689,-73.96642,Manhattan,2,Romanesque Revival,Brick,Residential,,,,,NA,NA,NA,NA,NA,NA
147,landmarks,"LIU, ZHONG GUO",1930,,35-41 87 STREET,40.751258,-73.879838,Queens,2,neo-Georgian,Red Brick,"Outbuilding, garage",,,,,NA,NA,NA,NA,NA,NA
148,landmarks,"TOPPER, MAUREEN",1900,,121 WEST 69 STREET,40.775819,-73.980976,Manhattan,2,Romanesque Revival,Brownstone,Residential,,,,,NA,NA,NA,NA,NA,NA
149,landmarks,BRUSCO WEST 78TH STRE,1900,,373 AMSTERDAM AVENUE,40.782043,-73.97784,Manhattan,2,Romanesque Revival,Brick,"Residential, multi-family",,,,,NA,NA,NA,NA,NA,NA
150,landmarks,"CASTLE, JENNIFER CARO",1901,,195 LEFFERTS AVENUE,40.662104,-73.954949,Brooklyn,2,French Renaissance,Brick,"Residential, multi-family",,,,,NA,NA,NA,NA,NA,NA
151,landmarks,OWNER / AGENT,1905,,112 WEST 72 STREET,40.777685,-73.97947,Manhattan,2,neo-Georgian,Brick,"Commercial, hotel",,,,,NA,NA,NA,NA,NA,NA
152,landmarks,BORGLUM REALTY CORP,1900,,106 WEST 71 STREET,40.776955,-73.979824,Manhattan,2,neo-Grec,Brownstone,Residential,,,,,NA,NA,NA,NA,NA,NA
153,landmarks,119 W. 3RD ST. REALTY,1900,,125 MAC DOUGAL STREET,40.730527,-74.000054,Manhattan,2,Federal,Brick,Residential,,,,,NA,NA,NA,NA,NA,NA
154,landmarks,FRANK J LOPREST,1905,,227 GREENE AVENUE,40.687068,-73.962817,Brooklyn,2,neo-Grec,Brownstone,Residential,,,,,NA,NA,NA,NA,NA,NA
155,landmarks,JAMES C. LOMAX CONSTR,1910,,382 STUYVESANT AVENUE,40.681559,-73.932387,Brooklyn,2,Romanesque Revival,Limestone,Residential,,,,,NA,NA,NA,NA,NA,NA
156,landmarks,118 & 120 HUDSON STRE,1915,,118 HUDSON STREET,40.719855,-74.00859,Manhattan,2,Renaissance Revival,Cast Iron,"Commercial, store and lofts",,,,,NA,NA,NA,NA,NA,NA
157,landmarks,"KEDZKIDZ REALTY, LLC",1915,,404 BROADWAY,40.718856,-74.002334,Manhattan,2,Mid-20th century Commercial,Masonry,"Commercial, store and offices",,,,,NA,NA,NA,NA,NA,NA
158,landmarks,LOGANY,1900,,1 BROADWAY,40.704785,-74.014099,Manhattan,2,Queen Anne (original),Masonry,"Commercial, office building",,,,,NA,NA,NA,NA,NA,NA
159,landmarks,INDEPENDANT LIVING AS,1920,,1463 PACIFIC STREET,40.677294,-73.943016,Brooklyn,2,Romanesque Revival,Brick,Residential,,,,,NA,NA,NA,NA,NA,NA
160,landmarks,J F WINDLE,1930,,35-55 87 STREET,40.751072,-73.879802,Queens,2,neo-Georgian,Red Brick,"Outbuilding, garage",,,,,NA,NA,NA,NA,NA,NA
161,landmarks,BROOKLYN POLICE CASTL,1931,,4302 4 AVENUE,40.650305,-74.008602,Brooklyn,2,Venetian Romanesque,Limestone,"Civic, police station",,,,,NA,NA,NA,NA,NA,NA
162,landmarks,"MARRON, MARTIN GUILLE",1899,,121 WEST 85 STREET,40.786162,-73.973498,Manhattan,1,Renaissance Revival,Brownstone,Residential,,,,,NA,NA,NA,NA,NA,NA
163,landmarks,FRANCIS IRACE,1935,,34-22 88 STREET,40.75353,-73.879325,Queens,1,neo-Georgian,Red Brick,"Outbuilding, garage",,,,,NA,NA,NA,NA,NA,NA
164,landmarks,TUJUNGA GARDENS LIMIT,1910,,72 WEST 69 STREET,40.775067,-73.979247,Manhattan,1,Romanesque Revival,Brick,"Residential, multi-family",,,,,NA,NA,NA,NA,NA,NA
165,landmarks,MR & MRS B C BLANEY,1930,,34-25 84 STREET,40.753051,-73.883004,Queens,1,neo-Georgian,Red Brick,Residential,,,,,NA,NA,NA,NA,NA,NA
166,landmarks,RODRIGUEZ RAYMOND,1925,,35-22 88 STREET,40.751592,-73.878971,Queens,1,neo-Georgian,Brick,Residential,,,,,NA,NA,NA,NA,NA,NA
167,landmarks,OWNER / AGENT,1931,,632 11 STREET,40.663714,-73.978514,Brooklyn,1,Neoclassical,Stone,"Residential, multi-family",,,,,NA,NA,NA,NA,NA,NA
168,landmarks,CONG BETH ELOHIM,1931,,177 8 AVENUE,40.670905,-73.974157,Brooklyn,1,Art Deco,Cast Stone,"Religious, synagogue",,,,,NA,NA,NA,NA,NA,NA
169,landmarks,"G & L ROYALTY, INC.",1920,,67 2 AVENUE,40.726316,-73.989754,Manhattan,1,neo-Grec alterations,Brick,Residential,,,,,NA,NA,NA,NA,NA,NA
170,landmarks,BROADWAY 922 ENTERPRI,1925,,922 BROADWAY,40.739974,-73.989542,Manhattan,1,Second Empire,Brick,Residential,,,,,NA,NA,NA,NA,NA,NA
171,landmarks,"DITTMAN, CHRISTINA",1910,,310 PARK PLACE,40.67645,-73.967625,Brooklyn,1,Romanesque Revival,Brownstone,Residential,,,,,NA,NA,NA,NA,NA,NA
172,landmarks,100 WEST 88 STREET HD,1910,,570 COLUMBUS AVENUE,40.787556,-73.971407,Manhattan,1,Romanesque,Brick,"Residential, multi-family",,,,,NA,NA,NA,NA,NA,NA
173,landmarks,SADEK WAHBA,1899,,1217 PARK AVENUE,40.785664,-73.952796,Manhattan,1,Queen Anne,Brownstone,Residential,,,,,NA,NA,NA,NA,NA,NA
174,landmarks,"HAFFNER, BRIAN",1901,,203 LEFFERTS AVENUE,40.662118,-73.954761,Brooklyn,1,French Renaissance,Brick,"Residential, multi-family",,,,,NA,NA,NA,NA,NA,NA
175,landmarks,"RUBIN, ROBERT",1901,,39-26 213 STREET,40.764795,-73.772605,Queens,1,Colonial Revival,Wood Frame,"Residential, single family",,,,,NA,NA,NA,NA,NA,NA
176,landmarks,"T & J 2006,  LLC",1910,,101 WEST 86 STREET,40.78656,-73.972324,Manhattan,1,Renaissance Revival,Brick,"Residential, multi-family",,,,,NA,NA,NA,NA,NA,NA
177,landmarks,"SABATINI, CHRISTOPHER",1899,,22 CLIFTON PLACE,40.687686,-73.963773,Brooklyn,1,neo-Grec,Brownstone,Residential,,,,,NA,NA,NA,NA,NA,NA
178,landmarks,EPSTEIN JEROME,1935,,34-13 87 STREET,40.753608,-73.880267,Queens,1,neo-Georgian,Red Brick,"Outbuilding, garage",,,,,NA,NA,NA,NA,NA,NA
179,landmarks,LINDA MCCUTCHEON LIVI,1920,,579 5 STREET,40.667565,-73.975935,Brooklyn,1,Tudor,Not determined,Residential,,,,,NA,NA,NA,NA,NA,NA
180,landmarks,CHRISTINA HSIAO,1899,,150 WEST 11 STREET,40.735978,-73.999711,Manhattan,1,Italianate,Brick,Residential,,,,,NA,NA,NA,NA,NA,NA
181,landmarks,"ANGELLINO, ANNIE",1900,,165 WEST 87 STREET,40.787897,-73.973403,Manhattan,1,Renaissance Revival,Stone,Residential,,,,,NA,NA,NA,NA,NA,NA
182,landmarks,"RODEHAU, FLORENCE M",1920,,301 38 ROAD,40.772663,-73.74689,Queens,1,Colonial Revival Cottage,Wood Frame,"Residential, single-family",,,,,NA,NA,NA,NA,NA,NA
183,landmarks,ALI MOIED,1935,,34-46 83 STREET,40.752517,-73.883878,Queens,1,neo-Georgian,Red Brick,"Outbuilding, garage",,,,,NA,NA,NA,NA,NA,NA
184,landmarks,54 WEST 89TH STREET R,1900,,54 WEST 89 STREET,40.788039,-73.969886,Manhattan,1,Queen Anne,Stone,Residential,,,,,NA,NA,NA,NA,NA,NA
185,landmarks,GALT GROUP HOLDINGS L,1920,,127 EAST 71 STREET,40.770026,-73.963356,Manhattan,1,Italianate (original),Brick,Residential,,,,,NA,NA,NA,NA,NA,NA
186,landmarks,"SANDS, JESSICA NANCY",1920,,107 PARK PLACE,40.678354,-73.97485,Brooklyn,1,French,Brownstone,Residential,,,,,NA,NA,NA,NA,NA,NA
187,landmarks,1282 STREET LLC,1905,,12 EAST 82 STREET,40.778658,-73.961636,Manhattan,1,Georgian,Red Brick,"Residential, single-family",,,,,NA,NA,NA,NA,NA,NA
188,landmarks,"NORTON, GRAHAM",1901,,6 SNIFFEN COURT,40.747166,-73.977898,Manhattan,1,Vernacular,Brick,"Transportation, stable",,,,,NA,NA,NA,NA,NA,NA
189,landmarks,"HALL, MARK J",1899,,586 11 STREET,40.664203,-73.979519,Brooklyn,1,Romanesque Revival,Brownstone,Residential,,,,,NA,NA,NA,NA,NA,NA
190,landmarks,"STALLBAUMER, DAVID",1900,,347 WEST 84 STREET,40.788025,-73.979882,Manhattan,1,neo-Grec,Brownstone,Residential,,,,,NA,NA,NA,NA,NA,NA
191,landmarks,NEWTOWN JETS LLC,1910,,266 CLERMONT AVENUE,40.690065,-73.970255,Brooklyn,1,Greek Revival,Wood Frame,Residential,,,,,NA,NA,NA,NA,NA,NA
192,landmarks,LCC REALTY CORP,1960,,198 8 AVENUE,40.670414,-73.975343,Brooklyn,1,Romanesque Revival,Limestone,Residential,,,,,NA,NA,NA,NA,NA,NA
193,landmarks,WASHINGTON HOTEL CORP,1905,,400 WASHINGTON AVENUE,40.687047,-73.965598,Brooklyn,1,Romanesque Revival,Brick,Residential,,,,,NA,NA,NA,NA,NA,NA
194,landmarks,CHANTEL FIELDS,1901,,751 KELLY STREET,40.817123,-73.899116,The Bronx,1,Romanesque Revival (late),Roman Brick,"Residential, multi-family",,,,,NA,NA,NA,NA,NA,NA
195,landmarks,NCM HOLDINGS LLC,1900,,1681 AMSTERDAM AVENUE,40.824031,-73.948476,Manhattan,1,Flemish,Light Brick,"Mixed-use, commercial & residential",,,,,NA,NA,NA,NA,NA,NA
196,landmarks,"370 BROADWAY, LLC",1915,,370 BROADWAY,40.717733,-74.003279,Manhattan,1,Queen Anne,Masonry,"Commercial, store and lofts",,,,,NA,NA,NA,NA,NA,NA
197,landmarks,ERNEST A LOGAN,1915,,974 ST JOHNS PLACE,40.6714,-73.94606,Brooklyn,1,Arts & Crafts,Brick,"Residential, multi-family",,,,,NA,NA,NA,NA,NA,NA
198,landmarks,MDK590 VANDERBILT AVE,1931,,590 VANDERBILT AVENUE,40.678844,-73.968446,Brooklyn,1,Renaissance Revival,Brick,"Residential, multi-family",,,,,NA,NA,NA,NA,NA,NA
199,landmarks,GUBERNICK  MARTIN,1899,,131 EAST 65 STREET,40.76614,-73.965791,Manhattan,1,Italianate (original),Stucco,Residential,,,,,NA,NA,NA,NA,NA,NA
200,landmarks,"JONES, JEFFREY MASON",1901,,56 MIDWOOD STREET,40.6596,-73.958749,Brooklyn,1,neo-Renaissance,Roman Brick,Residential,,,,,NA,NA,NA,NA,NA,NA
201,landmarks,"JOSIAH MACY,JR.ETC.",1910,,44 EAST 64 STREET,40.766533,-73.968719,Manhattan,1,Queen Anne,Brownstone,Residential,,,,,NA,NA,NA,NA,NA,NA
202,landmarks,46 WEST 76TH STREET L,1910,,46 WEST 76 STREET,40.779361,-73.975407,Manhattan,1,neo-Italian Renaissance,Brownstone,Residential,,,,,NA,NA,NA,NA,NA,NA
203,landmarks,SIENA REALTY INC,1899,,15 WEST 10 STREET,40.733779,-73.996291,Manhattan,1,Italianate,Brick,Residential,,,,,NA,NA,NA,NA,NA,NA
204,landmarks,LUMMEL LYNNE,1900,,338 WEST 71 STREET,40.77944,-73.985748,Manhattan,1,Romanesque Revival,Rock-faced Masonry,Residential,,,,,NA,NA,NA,NA,NA,NA
205,landmarks,WOLMAN DEREK,1901,,605 3 STREET,40.668791,-73.974979,Brooklyn,1,neo-Renaissance,Gray Brick,Residential,,,,,NA,NA,NA,NA,NA,NA
206,landmarks,JOSE MARTINEZ,1930,,34-38 85 STREET,40.753067,-73.882083,Queens,1,neo-Georgian,Red Brick,Residential,,,,,NA,NA,NA,NA,NA,NA
207,landmarks,"MALONE, WARREN",1900,,30 WEST 85 STREET,40.785028,-73.970844,Manhattan,1,Queen Anne,Brownstone,Residential,,,,,NA,NA,NA,NA,NA,NA
208,landmarks,H LUKSIK,1901,,28 PROSPECT PARK WEST,40.670545,-73.9719,Brooklyn,1,Romanesque Revival,Indiana Limestone,"Residential, single-family",,,,,NA,NA,NA,NA,NA,NA
209,landmarks,"CALLEN, ROBINSON TR",1920,,103 WEST 69 STREET,40.775624,-73.980521,Manhattan,1,Romanesque Revival,Brownstone,Residential,,,,,NA,NA,NA,NA,NA,NA
210,landmarks,"ASSADOUR O. TAVITIAN,",1910,,4 EAST 79 STREET,40.77686,-73.963414,Manhattan,1,neo-ltalian Renaissance,Limestone Ashlar,"Residential, single-family",,,,,NA,NA,NA,NA,NA,NA
211,landmarks,RANDOLPH POYER,1899,,398 STUYVESANT AVENUE,40.681062,-73.931692,Brooklyn,1,Romanesque Revival,Brownstone,Residential,,,,,NA,NA,NA,NA,NA,NA
212,landmarks,"GONZALO, MARIA",1930,,29 RUTLAND ROAD,40.658865,-73.959297,Brooklyn,1,Picturesque,Red Brick,Residential,,,,,NA,NA,NA,NA,NA,NA
213,landmarks,21 WEST 86 LLC,1927,,21 WEST 86 STREET,40.785838,-73.970606,Manhattan,1,Romanesque,Brick,"Residential, multi-family",,,,,NA,NA,NA,NA,NA,NA
214,landmarks,"JARTEC, LLC",1900,,41 WEST 88 STREET,40.787122,-73.969616,Manhattan,1,Romanesque,Brownstone,Residential,,,,,NA,NA,NA,NA,NA,NA
215,landmarks,"COL,",1910,,489 COLUMBUS AVENUE,40.784875,-73.97334,Manhattan,1,neo-Grec,Brick,"Residential, multi-family",,,,,NA,NA,NA,NA,NA,NA
216,landmarks,42 E 75TH ST OWNERS C,1910,,42 EAST 75 STREET,40.773523,-73.963535,Manhattan,1,neo-Gothic,Stucco,Residential,,,,,NA,NA,NA,NA,NA,NA
217,landmarks,"LUSTIG, ESTHER",1901,,831 EAST 17 STREET,40.630322,-73.960424,Brooklyn,1,Colonial Revival,Wood Frame,"Residential, single-family",,,,,NA,NA,NA,NA,NA,NA
218,landmarks,OKUMURA YURI,1910,,165 WEST 85 STREET,40.786539,-73.974393,Manhattan,1,Romanesque,Brick,Residential,,,,,NA,NA,NA,NA,NA,NA
219,landmarks,19 E 62 STREET CORP,1900,,19 EAST 62 STREET,40.765664,-73.970481,Manhattan,1,neo-Grec,Brick,Residential,,,,,NA,NA,NA,NA,NA,NA
220,landmarks,"KEENAN, ANNE",1899,,124 UNDERHILL AVENUE,40.676787,-73.966086,Brooklyn,1,Renaissance Revival,Brownstone,Residential,,,,,NA,NA,NA,NA,NA,NA
221,landmarks,G & M LUCAS,1910,,112 WEST 87 STREET,40.787438,-73.972356,Manhattan,1,Romanesque,Stone,Residential,,,,,NA,NA,NA,NA,NA,NA
222,landmarks,NINETY SIXTY LLC,1900,,317 WEST 77 STREET,40.78323,-73.982592,Manhattan,1,English Renaissance Revival,Rock-faced Brownstone,Residential,,,,,NA,NA,NA,NA,NA,NA
223,landmarks,"PREUDHOMME, PATRICK",1901,,151 LEFFERTS AVENUE,40.662039,-73.955979,Brooklyn,1,French Renaissance,Brick,"Residential, multi-family",,,,,NA,NA,NA,NA,NA,NA
224,landmarks,WINDERMERE PROPERTIES,1900,,869 9 AVENUE,40.76809,-73.986148,Manhattan,1,High Victorian Gothic,Red Brick,"Residential, multi family",,,,,NA,NA,NA,NA,NA,NA
225,landmarks,"MILLER, GABRIELLA",1930,,35-21 87 STREET,40.751527,-73.879888,Queens,1,neo-Georgian,Red Brick,Residential,,,,,NA,NA,NA,NA,NA,NA
226,landmarks,BRUSCO PARKWAY EASTAS,1910,,24 WEST 75 STREET,40.778532,-73.975418,Manhattan,1,Queen Anne,Brownstone,Residential,,,,,NA,NA,NA,NA,NA,NA
227,landmarks,"9 WEST 73RD STREET, L",1900,,9 WEST 73 STREET,40.777039,-73.975769,Manhattan,1,neo-Georgian,Red Brick,Residential,,,,,NA,NA,NA,NA,NA,NA
228,landmarks,224 CENTRE REALTY LLC,1915,,165 GRAND STREET,40.719556,-73.998698,Manhattan,1,Queen Anne,Brownstone,"Institutional, private club",,,,,NA,NA,NA,NA,NA,NA
229,landmarks,GRIFFITH ASQUITH D,1910,,280 DECATUR STREET,40.681535,-73.932603,Brooklyn,1,Renaissance Revival,Stone,Residential,,,,,NA,NA,NA,NA,NA,NA
230,landmarks,91 MACON STREET LLC,1900,,91 MACON STREET,40.681331,-73.947562,Brooklyn,1,Renaissance Revival,Stone,Residential,,,,,NA,NA,NA,NA,NA,NA
231,landmarks,C/O SL GREEN REALTY C,1910,,762 MADISON AVENUE,40.767686,-73.968437,Manhattan,1,neo-Grec,Brownstone,Residential,,,,,NA,NA,NA,NA,NA,NA
232,landmarks,YS SINGLE FAMILY LLC,1920,,914 PRESIDENT STREET,40.672447,-73.972364,Brooklyn,1,neo-Grec,Brownstone,Residential,,,,,NA,NA,NA,NA,NA,NA
233,landmarks,BIG BEND 53W88 NY LLC,1900,,53 WEST 88 STREET,40.787226,-73.969858,Manhattan,1,Romanesque,Brownstone,Residential,,,,,NA,NA,NA,NA,NA,NA
234,landmarks,"MUNROE, JOSEPHINE",1899,,118 PARK PLACE,40.6782,-73.974504,Brooklyn,1,French,Brownstone,Residential,,,,,NA,NA,NA,NA,NA,NA
235,landmarks,"6368 REALTY, LLC",1907,,63 WEST 68 STREET,40.774474,-73.979738,Manhattan,1,Queen Anne,Brownstone,Residential,,,,,NA,NA,NA,NA,NA,NA
236,landmarks,"AKIYA, NATHALIE",1935,,34-22 84 STREET,40.75315,-73.883047,Queens,1,neo-Tudor,Brick,Residential,,,,,NA,NA,NA,NA,NA,NA
237,landmarks,"PLATT, JANE",1831,,124 WILLOW STREET,40.697241,-73.995889,Brooklyn,1,Eclectic-Flemish,Brick,Residential,,,,,NA,NA,NA,NA,NA,NA
238,landmarks,"MEZA, CESAR H.",1935,,34-18 88 STREET,40.753615,-73.879339,Queens,1,neo-Georgian,Red Brick,"Outbuilding, garage",,,,,NA,NA,NA,NA,NA,NA
239,landmarks,SALVATORE PARDO,1931,,369 PARK PLACE,40.675999,-73.965387,Brooklyn,1,Renaissance Revival,Brownstone,Residential,,,,,NA,NA,NA,NA,NA,NA
240,landmarks,MARSHALL GERALD M,1900,,45 WEST 88 STREET,40.787158,-73.969695,Manhattan,1,Romanesque,Brownstone,Residential,,,,,NA,NA,NA,NA,NA,NA
241,landmarks,"MILLNER, GIEL",1920,,331 GREENWICH STREET,40.71779,-74.010599,Manhattan,1,Utilitarian,Cast Iron,Residential,,,,,NA,NA,NA,NA,NA,NA
242,landmarks,YOSHIZUMI CORP,1999,,163 PROSPECT PARK WEST,40.663316,-73.97793,Brooklyn,1,Classical,Not determined,"Residential, multi-family",,,,,NA,NA,NA,NA,NA,NA
243,landmarks,14 WEST 11 TEN CORP,1900,,14 WEST 11 STREET,40.73435,-73.995822,Manhattan,1,Federal,Brick,Residential,,,,,NA,NA,NA,NA,NA,NA
244,landmarks,"RUPPERT, LLC",1930,,23 BEEKMAN PLACE,40.753476,-73.964679,Manhattan,1,Second-generation Modernist,Rusticated Stone,"Residential, single family",,,,,NA,NA,NA,NA,NA,NA
245,landmarks,"PATTERSON, CHRISTIAN",1935,,34-36 88 STREET,40.753239,-73.879271,Queens,1,neo-Georgian,Red Brick,Residential,,,,,NA,NA,NA,NA,NA,NA
246,landmarks,7 EAST 78 STREET CORP,1920,,7 EAST 78 STREET,40.776125,-73.963757,Manhattan,1,Italian Renaissance,Limestone,"Residential, single-family",,,,,NA,NA,NA,NA,NA,NA
247,landmarks,"CHARLES H.C. GERARD,",1901,,27 EAST 73 STREET,40.772662,-73.96538,Manhattan,1,neo-Grec,Brownstone,Residential,,,,,NA,NA,NA,NA,NA,NA
248,landmarks,35321  HOLDINGS  LLC,1910,,353 WEST 21 STREET,40.74464,-74.000895,Manhattan,1,Italianate,Brick,Residential,,,,,NA,NA,NA,NA,NA,NA
249,landmarks,"SHABAKA, NUBIAA K",1901,,928 ST MARKS AVENUE,40.674719,-73.941295,Brooklyn,1,Romanesque Revival,Blonde Brick,Residential,,,,,NA,NA,NA,NA,NA,NA
250,landmarks,"CESBRON, JEAN JACQUES",1899,,436 WEST 162 STREET,40.835381,-73.938945,Manhattan,1,Classical,Rough-faced Stone,Residential,,,,,NA,NA,NA,NA,NA,NA
251,landmarks,CALLIOPE REALTY ASSOC,1920,,84 WOOSTER STREET,40.723956,-74.000714,Manhattan,1,Classical,Brick,"Commercial, mercantile exchange",,,,,NA,NA,NA,NA,NA,NA
252,landmarks,"VICTOIR, NICOLAS BENO",1901,,326A PRESIDENT STREET,40.680434,-73.993243,Brooklyn,1,neo-Grec,Brownstone,Residential,,,,,NA,NA,NA,NA,NA,NA
253,landmarks,ANGEL & YVETTE PABON,1910,,994 OCEAN AVENUE,40.638295,-73.958784,Brooklyn,1,Bungalow,Wood Frame,"Residential, single-family",,,,,NA,NA,NA,NA,NA,NA
254,landmarks,WILENSKY MARK,1920,,51 HUDSON AVENUE,40.703423,-73.981072,Brooklyn,1,Italianate,Wood Frame,"Mixed-use, commercial & residential",,,,,NA,NA,NA,NA,NA,NA
255,landmarks,"GREEN, MILDRED A",1901,,14 HAMILTON TERRACE,40.822246,-73.946899,Manhattan,1,Classical,Limestone,Residential,,,,,NA,NA,NA,NA,NA,NA
256,landmarks,PETER J KUHL,1930,,34-31 84 STREET,40.752941,-73.882986,Queens,1,neo-Georgian,Red Brick,Residential,,,,,NA,NA,NA,NA,NA,NA
257,landmarks,874 LEXINGTON AVE COR,1900,,874 LEXINGTON AVENUE,40.766211,-73.965289,Manhattan,1,Italianate (original),Stucco,"Residential, multi-family",,,,,NA,NA,NA,NA,NA,NA
258,landmarks,"LITTLETON, ROBERT",1901,,25 PROSPECT PARK WEST,40.670835,-73.971666,Brooklyn,1,Classical,Roman Brick,Residential,,,,,NA,NA,NA,NA,NA,NA
259,landmarks,"GONZALEZ, JULIO",1935,,34-38 88 STREET,40.753198,-73.879264,Queens,1,neo-Georgian,Red Brick,"Outbuilding, garage",,,,,NA,NA,NA,NA,NA,NA
260,landmarks,WEST 70TH ST ASSC,1910,,57 WEST 70 STREET,40.775574,-73.978463,Manhattan,1,Queen Anne,Brick,Residential,,,,,NA,NA,NA,NA,NA,NA
261,landmarks,"48 WEST 76TH STREET,",1901,,48 WEST 76 STREET,40.779378,-73.975451,Manhattan,1,neo-Italian Renaissance,Brownstone,Residential,,,,,NA,NA,NA,NA,NA,NA
262,landmarks,YOSHIZUMI CORP,1999,,163 PROSPECT PARK WEST,40.663316,-73.97793,Brooklyn,1,Classical,Not determined,"Residential, multi-family",,,,,NA,NA,NA,NA,NA,NA
263,landmarks,OLYMPICGOLD LLC,1930,,647 5 AVENUE,40.759503,-73.976483,Manhattan,1,French Louis XV,Stone,"Residential, single family",,,,,NA,NA,NA,NA,NA,NA
264,landmarks,"64 WEST 10TH STREET,",1900,,64 WEST 10 STREET,40.73424,-73.997438,Manhattan,1,Greek Revival (original),Not determined,Residential,,,,,NA,NA,NA,NA,NA,NA
265,landmarks,BRIDGET I BENJAMIN,1899,,388 VANDERBILT AVENUE,40.685626,-73.968346,Brooklyn,1,neo-Grec,Brownstone,Residential,,,,,NA,NA,NA,NA,NA,NA
266,landmarks,8 FULTON CORP,1915,,8 OLD FULTON STREET,40.702969,-73.994666,Brooklyn,1,British 19th century Commercial,Brick,"Commercial, offices",,,,,NA,NA,NA,NA,NA,NA
267,landmarks,"145 WEST 78TH STREET,",1900,,145 WEST 78 STREET,40.781835,-73.977302,Manhattan,1,Romanesque Revival,Stone,Residential,,,,,NA,NA,NA,NA,NA,NA
268,landmarks,NEW YORK AIKIKAI LTD,1920,,140 WEST 18 STREET,40.740375,-73.996261,Manhattan,1,Rundbogenstil,Brick,"Transportation, stable",,,,,NA,NA,NA,NA,NA,NA
269,landmarks,MKFH LLC,1900,,55 MERCER STREET,40.72187,-74.000934,Manhattan,1,French Second Empire,Cast Iron,"Commercial, stores",,,,,NA,NA,NA,NA,NA,NA
270,landmarks,WILLIAM P FALLON,1935,,34-42 88 STREET,40.753116,-73.87925,Queens,1,neo-Georgian,Red Brick,"Outbuilding, garage",,,,,NA,NA,NA,NA,NA,NA
271,landmarks,WEST 70TH ST TENANTS,1910,,105 WEST 70 STREET,40.776283,-73.980138,Manhattan,1,Renaissance Revival,Brownstone,Residential,,,,,NA,NA,NA,NA,NA,NA
272,landmarks,"STEPHENSON, MICHELE",1900,,254 ADELPHI STREET,40.690235,-73.97129,Brooklyn,1,Italianate,Wood Frame,Residential,,,,,NA,NA,NA,NA,NA,NA
273,landmarks,86 88 OWNRS CORP,1909,,86 PROSPECT PARK WEST,40.667455,-73.974482,Brooklyn,1,neo-Federal,Red Brick,"Residential, multi-family",,,,,NA,NA,NA,NA,NA,NA
274,landmarks,342 WEST END AVENUE L,1900,,342 WEST END AVENUE,40.782533,-73.982476,Manhattan,1,Renaissance Revival,Brownstone,Residential,,,,,NA,NA,NA,NA,NA,NA
275,landmarks,SILVERSHORE PROPERTIE,1840,,56 PIERREPONT STREET,40.695712,-73.994915,Brooklyn,1,Eclectic-Diverse (Eastlake),Brick,Residential,,,,,NA,NA,NA,NA,NA,NA
276,landmarks,"ALEXANDER, PHILLIP",1901,,130 HANCOCK STREET,40.682422,-73.950936,Brooklyn,1,Egyptian Revival,Brownstone,Residential,,,,,NA,NA,NA,NA,NA,NA
277,landmarks,ELAINE J SCHWARTZ,1910,,55 WEST 94 STREET,40.791126,-73.967411,Manhattan,1,Romanesque Revival,Brownstone,Residential,,,,,NA,NA,NA,NA,NA,NA
278,landmarks,MIA TERRA REALTY CORP,1930,,14 WEST 90 STREET,40.788184,-73.968246,Manhattan,1,Northern Renaissance,Brownstone,Residential,,,,,NA,NA,NA,NA,NA,NA
279,landmarks,DOMINICAN SISTERS/ETC,1910,,279 ALEXANDER AVENUE,40.810865,-73.924561,The Bronx,1,Queen Anne,Brick,Residential,,,,,NA,NA,NA,NA,NA,NA
280,landmarks,WEST 70TH ST TENANTS,1900,,107 WEST 70 STREET,40.776296,-73.980171,Manhattan,1,Renaissance Revival,Brownstone,Residential,,,,,NA,NA,NA,NA,NA,NA
281,landmarks,1145 NOMAD PARTNERS L,1925,,1145 BROADWAY,40.744022,-73.988979,Manhattan,1,Italianate,Brick,Residential,,,,,NA,NA,NA,NA,NA,NA
282,landmarks,"LEWIN, ROBERT J",1901,,614 2 STREET,40.669442,-73.974619,Brooklyn,1,Neoclassical,Brownstone,Residential,,,,,NA,NA,NA,NA,NA,NA
283,landmarks,134-136 EAST 74TH STR,1901,,134 EAST 74 STREET,40.771911,-73.961676,Manhattan,1,Italianate (original),Not determined,Residential,,,,,NA,NA,NA,NA,NA,NA
284,landmarks,38 MONTGOMERY PL CORP,1928,,38 MONTGOMERY PLACE,40.671187,-73.972985,Brooklyn,1,Queen Anne,Orange Brick,Residential,,,,,NA,NA,NA,NA,NA,NA
285,landmarks,"CALDERON, MARIA",1930,,35-29 87 STREET,40.75142,-73.879867,Queens,1,neo-Georgian,Red Brick,"Outbuilding, garage",,,,,NA,NA,NA,NA,NA,NA
286,landmarks,ST PHILIPS EPISCOPAL,1899,,270 DECATUR STREET,40.681502,-73.932874,Brooklyn,1,Renaissance Revival,Stone,Residential,,,,,NA,NA,NA,NA,NA,NA
287,landmarks,PARK PLACE RESIDENCE,1915,,218 PARK PLACE,40.677088,-73.970668,Brooklyn,1,neo-Grec,Brownstone,Residential,,,,,NA,NA,NA,NA,NA,NA
288,landmarks,EMEL REALTY CORP,1910,,49 WEST 75 STREET,40.778766,-73.975924,Manhattan,1,Romanesque Revival,Brownstone,Residential,,,,,NA,NA,NA,NA,NA,NA
289,landmarks,"HUANG, PAUL",1920,,36 EAST 74 STREET,40.772936,-73.964109,Manhattan,1,Italianate (original),Brick,Residential,,,,,NA,NA,NA,NA,NA,NA
290,landmarks,MOTHERS OF THE HELPLE,1900,,430 WEST 20 STREET,40.745049,-74.003732,Manhattan,1,Italianate,Brick,Residential,,,,,NA,NA,NA,NA,NA,NA
291,landmarks,GARFIELD LESLIE J,1910,,30 EAST 74 STREET,40.772974,-73.964196,Manhattan,1,neo-Medeival Gothic,Brick,Residential,,,,,NA,NA,NA,NA,NA,NA
292,landmarks,35 71 OWNERS CORP,1900,,35 WEST 71 STREET,40.776214,-73.97804,Manhattan,1,neo-Grec,Brownstone,Residential,,,,,NA,NA,NA,NA,NA,NA
293,landmarks,2840 ATLANTIC HOLDING,1914,,2840 ATLANTIC AVENUE,40.676789,-73.889346,Brooklyn,1,Abstract Classicism,Brick,"Industrial, dairy",,,,,NA,NA,NA,NA,NA,NA
294,landmarks,JUDSON MEMORIAL CHURC,1900,,55 WASHINGTON SQUARE S,40.7304,-73.998319,Manhattan,1,Renaissance,Yellow Brick,"Religious, church",,,,,NA,NA,NA,NA,NA,NA
295,landmarks,"BONFILS-ROBERTS, MARJ",1899,,592 11 STREET,40.66414,-73.979389,Brooklyn,1,Romanesque Revival,Brownstone,Residential,,,,,NA,NA,NA,NA,NA,NA
296,landmarks,"ALSADIR, NUAR",1899,,288 VANDERBILT AVENUE,40.688711,-73.968965,Brooklyn,1,Queen Anne,Brick,Residential,,,,,NA,NA,NA,NA,NA,NA
297,landmarks,SAMUELS ROY A,1903,,863 STERLING PLACE,40.672505,-73.949649,Brooklyn,1,Renaissance Revival,Stone,"Residential, multi-family",,,,,NA,NA,NA,NA,NA,NA
298,landmarks,CHAN HING CHUNG,1930,,35-22 87 STREET,40.751522,-73.879906,Queens,1,neo-Tudor,Brick,"Outbuilding, garage",,,,,NA,NA,NA,NA,NA,NA
299,landmarks,"LATHAM, JANINE SARAH",1899,,351 ADELPHI STREET,40.686909,-73.970606,Brooklyn,1,Greek Revival,Brownstone,Residential,,,,,NA,NA,NA,NA,NA,NA
300,landmarks,GRIFFITH LOIS,1899,,291 CUMBERLAND STREET,40.686873,-73.972568,Brooklyn,1,neo-Renaissance,Yellow Brick,Residential,,,,,NA,NA,NA,NA,NA,NA
301,landmarks,BRUSCO WEST 78TH STRE,1920,,371 AMSTERDAM AVENUE,40.78226,-73.978963,Manhattan,1,Queen Anne,Brick,"Mixed-use, commercial & residential",,,,,NA,NA,NA,NA,NA,NA
302,landmarks,"WEST 73 ST,",1910,,36 WEST 73 STREET,40.777671,-73.977311,Manhattan,1,Romanesque,Brownstone,Residential,,,,,NA,NA,NA,NA,NA,NA
303,landmarks,5-7 1/2 JANE STREET,1926,,5 JANE STREET,40.738141,-74.002479,Manhattan,1,neo-Grec,Brick,"Residential, multi-family",,,,,NA,NA,NA,NA,NA,NA
304,landmarks,TIBERIUS CHONSIK KIM,1935,,34-34 83 STREET,40.752799,-73.883932,Queens,1,neo-Georgian,Red Brick,"Outbuilding, garage",,,,,NA,NA,NA,NA,NA,NA
305,landmarks,FRANKLIN CONDO,1920,,158 FRANKLIN STREET,40.719254,-74.008146,Manhattan,1,Queen Anne,Cast Iron,"Commercial, store and lofts",,,,,NA,NA,NA,NA,NA,NA
306,landmarks,A & L MANAGEMENT ASSO,1910,,169 WEST 80 STREET,40.783575,-73.977197,Manhattan,1,Romanesque Revival,Brick,"Residential, multi-family",,,,,NA,NA,NA,NA,NA,NA
307,landmarks,EDWINA R WALTERS,1899,,511 MACON STREET,40.683227,-73.931073,Brooklyn,1,Queen Anne,Brownstone,Residential,,,,,NA,NA,NA,NA,NA,NA
308,landmarks,321 SIXTH AVENUE PART,1920,,317 AVENUE OF THE AMER,40.730927,-74.001501,Manhattan,1,Italianate,Brick,Residential,,,,,NA,NA,NA,NA,NA,NA
309,landmarks,"ALEXANDER 285, LLC",1899,,285 ALEXANDER AVENUE,40.810983,-73.924474,The Bronx,1,Queen Anne,Brick,Residential,,,,,NA,NA,NA,NA,NA,NA
310,landmarks,72 WEST 88TH ST HDFC,1900,,72 WEST 88 STREET,40.787377,-73.970262,Manhattan,1,Renaissance Revival,Brick,"Residential, multi-family",,,,,NA,NA,NA,NA,NA,NA
311,landmarks,TSARNAS BARBARA,1899,,164 HOYT STREET,40.685375,-73.988624,Brooklyn,1,neo-Grec,Brick,Residential,,,,,NA,NA,NA,NA,NA,NA
312,landmarks,SBROCCO HENRY,1899,,162 HOYT STREET,40.685424,-73.988592,Brooklyn,1,neo-Grec,Brick,Residential,,,,,NA,NA,NA,NA,NA,NA
313,landmarks,70TH STREET CASA LLC,1901,,116 EAST 70 STREET,40.769458,-73.963999,Manhattan,1,Anglo-Italianate (original),Masonry,Residential,,,,,NA,NA,NA,NA,NA,NA
314,landmarks,JAMES DOOLING,1900,,120 WEST 81 STREET,40.783594,-73.975373,Manhattan,1,Romanesque Revival,Brick,Residential,,,,,NA,NA,NA,NA,NA,NA
315,landmarks,MEI HUA JIANG,1920,,14 RICHMOND ROAD,40.779451,-73.75336,Queens,1,Tudor Revival,Wood Frame,"Residential, single-family",,,,,NA,NA,NA,NA,NA,NA
316,landmarks,BUTTERCUP MANAGEMENTC,1900,,131 WEST 70 STREET,40.776458,-73.980557,Manhattan,1,neo-Grec,Brownstone,Residential,,,,,NA,NA,NA,NA,NA,NA
317,landmarks,GAGEN JOSEPH,1900,,53 WEST 94 STREET,40.791096,-73.967339,Manhattan,1,Romanesque Revival,Brownstone,Residential,,,,,NA,NA,NA,NA,NA,NA
318,landmarks,80 COLUMBUS OWNERS CO,1890,,123 WEST 80 STREET,40.782971,-73.975763,Manhattan,1,Romanesque Revival,Brownstone,Residential,,,,,NA,NA,NA,NA,NA,NA
319,landmarks,FERNANDEZ LUCIA,1930,,34-34 85 STREET,40.753116,-73.882094,Queens,1,neo-Georgian,Red Brick,"Outbuilding, garage",,,,,NA,NA,NA,NA,NA,NA
320,landmarks,COLVIN GIBB,1905,,207 GREENE AVENUE,40.68697,-73.963654,Brooklyn,1,neo-Grec,Brownstone,Residential,,,,,NA,NA,NA,NA,NA,NA
321,landmarks,MONA SEHGAL,1930,,35-43 87 STREET,40.751231,-73.879834,Queens,1,neo-Georgian,Red Brick,Residential,,,,,NA,NA,NA,NA,NA,NA
322,landmarks,"G.E.M.S. REALTY, LLC.",1910,,315 WEST 77 STREET,40.783222,-73.982566,Manhattan,1,English Renaissance Revival,Rock-faced Brownstone,Residential,,,,,NA,NA,NA,NA,NA,NA
323,landmarks,10 EAST 67TH STREET L,1920,,10 EAST 67 STREET,40.769004,-73.968754,Manhattan,1,Queen Anne (original),Limestone,Residential,,,,,NA,NA,NA,NA,NA,NA
324,landmarks,OLGA MORA,1910,,15 WEST 74 STREET,40.777841,-73.9757,Manhattan,1,neo-Grec,Brick,Residential,,,,,NA,NA,NA,NA,NA,NA
325,landmarks,"DELFINO, MARIANNA",1921,,291 7 AVENUE,40.667961,-73.980675,Brooklyn,1,Queen Anne,Brownstone,"Residential, multi-family",,,,,NA,NA,NA,NA,NA,NA
326,landmarks,"CUTHILL, ROBERT B",1920,,27 MONTGOMERY PLACE,40.671316,-73.973208,Brooklyn,1,Renaissance,Yellow Brick,Residential,,,,,NA,NA,NA,NA,NA,NA
327,landmarks,"SUN, DAVID",1899,,54 HAMILTON TERRACE,40.822938,-73.946407,Manhattan,1,Renaissance,Limestone,Residential,,,,,NA,NA,NA,NA,NA,NA
328,landmarks,CASA OAXACA L.L.C.,1915,,29 BANK STREET,40.736958,-74.002955,Manhattan,1,Italianate,Brick,Residential,,,,,NA,NA,NA,NA,NA,NA
329,landmarks,PARKS AND RECREATION,2013,,3 WASHINGTON SQUARE N,40.730883,-73.997593,Manhattan,1,Eclectic,Stone,"Civic, monument",,,,,NA,NA,NA,NA,NA,NA
330,landmarks,66-68 WEST 82ND STREE,1900,,66 WEST 82 STREET,40.783437,-73.972979,Manhattan,1,Romanesque Revival,Brownstone,Residential,,,,,NA,NA,NA,NA,NA,NA
331,landmarks,21 BANK STREET LLC,1910,,21 BANK STREET,40.73699,-74.002724,Manhattan,1,Medieval,Brick,Residential,,,,,NA,NA,NA,NA,NA,NA
332,landmarks,STERAM REALTY CORP,1910,,33 WEST 76 STREET,40.779265,-73.975136,Manhattan,1,Queen Anne,Rock-faced Stone,Residential,,,,,NA,NA,NA,NA,NA,NA
333,landmarks,WILLIAM P FALLON,1935,,34-42 88 STREET,40.753116,-73.87925,Queens,1,neo-Georgian,Red Brick,Residential,,,,,NA,NA,NA,NA,NA,NA
334,landmarks,290 W12 LLC,1965,,290 WEST 12 STREET,40.737537,-74.004193,Manhattan,1,Eclectic (original),Brick,"Residential, multi-family",,,,,NA,NA,NA,NA,NA,NA
335,landmarks,"SMITH, SANFORD L",1899,,166 WEST 88 STREET,40.788528,-73.972995,Manhattan,1,Romanesque,Brownstone,Residential,,,,,NA,NA,NA,NA,NA,NA
336,landmarks,GOODMAN EZRA N,1901,,477 1 STREET,40.671248,-73.976572,Brooklyn,1,French neo-Grec,Brownstone,Residential,,,,,NA,NA,NA,NA,NA,NA
337,landmarks,T I R N REALTY CORP,1910,,768 MADISON AVENUE,40.767832,-73.968328,Manhattan,1,neo-Grec,Brownstone,Residential,,,,,NA,NA,NA,NA,NA,NA
338,landmarks,"KNIGHT, MARC O",1901,,181 LEFFERTS AVENUE,40.662085,-73.955277,Brooklyn,1,French Renaissance,Brick,"Residential, multi-family",,,,,NA,NA,NA,NA,NA,NA
339,landmarks,REFORMED PROTESTANT D,1910,,360 WEST END AVENUE,40.783117,-73.982046,Manhattan,1,Flemish Renaissance Revival,Brick,"Religious, church, Dutch Reformed",,,,,NA,NA,NA,NA,NA,NA
340,landmarks,275 BLEECKER CORP,1920,,275 BLEECKER STREET,40.731608,-74.003208,Manhattan,1,Italianate,Wood,Residential,,,,,NA,NA,NA,NA,NA,NA
341,landmarks,ESCORP INC,1910,,123 WEST 11 STREET,40.735758,-73.999138,Manhattan,1,Italianate,Brick,Residential,,,,,NA,NA,NA,NA,NA,NA
342,landmarks,GROVE ESTATES LLC,1930,,1863 PUTNAM AVENUE,40.702776,-73.904173,Queens,1,Romanesque Revival,Yellow Brick,"Residential, multi-family",,,,,NA,NA,NA,NA,NA,NA
343,landmarks,3747 82ND STREET LLC,1922,,37-47 82 STREET,40.749396,-73.884237,Queens,1,neo-Georgian,Brick,Commercial,,,,,NA,NA,NA,NA,NA,NA
344,landmarks,WILLIAM CLINTON,1930,,212 GREENE AVENUE,40.687044,-73.962882,Brooklyn,1,neo-Grec,Brownstone,Residential,,,,,NA,NA,NA,NA,NA,NA
345,landmarks,MR & MRS B C BLANEY,1930,,34-25 84 STREET,40.753051,-73.883004,Queens,1,neo-Georgian,Red Brick,"Outbuilding, garage",,,,,NA,NA,NA,NA,NA,NA
346,landmarks,"KOONTZ, MICHAEL J",1935,,34-29 87 STREET,40.753276,-73.880206,Queens,1,neo-Georgian,Red Brick,Residential,,,,,NA,NA,NA,NA,NA,NA
347,landmarks,"ONLY PROPERTIES, LLC",1910,,31 WALKER STREET,40.719322,-74.00447,Manhattan,1,Second Empire,Masonry,"Commercial, store and lofts",,,,,NA,NA,NA,NA,NA,NA
348,landmarks,LISA A. RENAUD,1901,,80 HANCOCK STREET,40.682267,-73.952296,Brooklyn,1,Egyptian Revival,Brownstone,Residential,,,,,NA,NA,NA,NA,NA,NA
349,landmarks,"RIVERA, JOHNNY",1901,,788 DAWSON STREET,40.817675,-73.899762,The Bronx,1,Romanesque Revival (late),Roman Brick,"Residential, multi-family",,,,,NA,NA,NA,NA,NA,NA
350,landmarks,"PATEL, MIHIR J",1899,,6 BEDFORD STREET,40.728902,-74.003392,Manhattan,1,Renaissance Revival,Brick,Residential,,,,,NA,NA,NA,NA,NA,NA
351,landmarks,ROBERTA P HUBER,1910,,139 WEST 78 STREET,40.781785,-73.977183,Manhattan,1,Romanesque Revival,Stone,Residential,,,,,NA,NA,NA,NA,NA,NA
352,landmarks,SONYA VASSOS,1899,,7 CAMBRIDGE PLACE,40.686525,-73.963409,Brooklyn,1,neo-Grec,Brownstone,Residential,,,,,NA,NA,NA,NA,NA,NA
353,landmarks,239 WEST LLC,1843,,239 WEST 12 STREET,40.737649,-74.002317,Manhattan,1,neo-Grec,Brick,Residential,,,,,NA,NA,NA,NA,NA,NA
354,landmarks,"WANG & ASSOCIATES,",1915,,145 GRAND STREET,40.720187,-73.999376,Manhattan,1,Italianate alterations,Brick,Residential,,,,,NA,NA,NA,NA,NA,NA
355,landmarks,86 JANE STREET LLC,1905,,86 JANE STREET,40.738135,-74.00743,Manhattan,1,Italianate,Brick,Residential,,,,,NA,NA,NA,NA,NA,NA
356,landmarks,A TRENKMANN EST INC,1910,,241 CENTRE STREET,40.720234,-73.998167,Manhattan,1,Renaissance Revival,Brick,"Industrial, factory",,,,,NA,NA,NA,NA,NA,NA
357,landmarks,"112 WEST 74TH STREET,",1910,,112 WEST 74 STREET,40.778947,-73.978368,Manhattan,1,Romanesque Revival,Brownstone,Residential,,,,,NA,NA,NA,NA,NA,NA
358,landmarks,TERRA ALTA LLC,1920,,116 EAST 91 STREET,40.783027,-73.954101,Manhattan,1,Queen Anne,Brownstone,"Residential, multi-family",,,,,NA,NA,NA,NA,NA,NA
359,landmarks,"CHECHAK, KATHRYN",1899,,435 WEST 147 STREET,40.825769,-73.944829,Manhattan,1,Romanesque Revival,Brick,Residential,,,,,NA,NA,NA,NA,NA,NA
360,landmarks,ONE NINETY REALTY COM,1910,,100 WEST 69 STREET,40.775196,-73.980424,Manhattan,1,Queen Anne,Brick,"Residential, multi-family",,,,,NA,NA,NA,NA,NA,NA
361,landmarks,"JARA, JOHNNY",1925,,35-54 88 STREET,40.750936,-73.878853,Queens,1,neo-Georgian,Brick,Residential,,,,,NA,NA,NA,NA,NA,NA
362,landmarks,HANNA LOFTIN,1899,,390 VANDERBILT AVENUE,40.685585,-73.968339,Brooklyn,1,neo-Grec,Brownstone,Residential,,,,,NA,NA,NA,NA,NA,NA
363,landmarks,531 BERGEN STREET LLC,1930,,531 BERGEN STREET,40.680352,-73.972642,Brooklyn,1,Renaissance Revival,Brick,"Residential, multi-family",,,,,NA,NA,NA,NA,NA,NA
364,landmarks,YOLANDA CLARKE,1900,,77 HALSEY STREET,40.681733,-73.950537,Brooklyn,1,Renaissance Revival,Brownstone,Residential,,,,,NA,NA,NA,NA,NA,NA
365,landmarks,ROBERT A MARVIN,1905,,135 MIDWOOD STREET,40.659794,-73.95588,Brooklyn,1,neo-Renaissance,Brick,Residential,,,,,NA,NA,NA,NA,NA,NA
366,landmarks,"NOVOGRATZ , JOHN",1920,,117 8 AVENUE,40.672354,-73.97372,Brooklyn,1,Richardsonian Romanesque,Brick,"Residential, single-family",,,,,NA,NA,NA,NA,NA,NA
367,landmarks,"CORDOVA-DUPREY, SOCOR",1899,,187 6 AVENUE,40.676277,-73.977385,Brooklyn,1,Classical,Brownstone,Residential,,,,,NA,NA,NA,NA,NA,NA
368,landmarks,"IONE E. BROWNE, TRUST",1899,,29 CLIFTON PLACE,40.687752,-73.96334,Brooklyn,1,neo-Grec,Brownstone,Residential,,,,,NA,NA,NA,NA,NA,NA
369,landmarks,31 WEST 74TH STREET L,1973,,31 WEST 74 STREET,40.777975,-73.976025,Manhattan,1,Northern Renaissance,Stone,Residential,,,,,NA,NA,NA,NA,NA,NA
370,landmarks,66-68 WEST 82ND STREE,1900,,68 WEST 82 STREET,40.783453,-73.973019,Manhattan,1,Romanesque Revival,Brownstone,Residential,,,,,NA,NA,NA,NA,NA,NA
371,landmarks,"SUKKAR, NORMAN",1900,,80 EAST 2 STREET,40.724155,-73.988531,Manhattan,1,Italianate,Brick,Residential,,,,,NA,NA,NA,NA,NA,NA
372,landmarks,GALAXY SILVER LIMITED,1910,,45 EAST 74 STREET,40.772919,-73.964026,Manhattan,1,Queen Anne (original),Brick,Residential,,,,,NA,NA,NA,NA,NA,NA
373,landmarks,ROBINSON VERGIE,1900,,105 MAC DONOUGH STREET,40.681208,-73.942126,Brooklyn,1,Queen Anne,Brownstone,Residential,,,,,NA,NA,NA,NA,NA,NA
374,landmarks,"LYNCH, JAMES J",1899,,126 NOBLE STREET,40.728613,-73.955687,Brooklyn,1,Greek Revival,Wood Frame,Residential,,,,,NA,NA,NA,NA,NA,NA
375,landmarks,"STEJENDAN REALTY, INC",1920,,27 EAST 63 STREET,40.765993,-73.969326,Manhattan,1,neo-Georgian,Brick,Residential,,,,,NA,NA,NA,NA,NA,NA
376,landmarks,110 W 81 ST LLC,1900,,110 WEST 81 STREET,40.783506,-73.975171,Manhattan,1,Romanesque Revival,Brownstone,Residential,,,,,NA,NA,NA,NA,NA,NA
377,landmarks,101 W. 74TH STREET,1910,,300 COLUMBUS AVENUE,40.778873,-73.97774,Manhattan,1,Queen Anne,Brick,"Residential, multi-family",,,,,NA,NA,NA,NA,NA,NA
378,landmarks,"ORANGE 80, LLC",1900,,72 HENRY STREET,40.698654,-73.992448,Brooklyn,1,Colonial,Brownstone,"Mixed-use, commercial & residential",,,,,NA,NA,NA,NA,NA,NA
379,landmarks,"TOROMA REALTY, LLC",1920,,909 UNION STREET,40.673734,-73.973561,Brooklyn,1,Queen Anne,Brick,Residential,,,,,NA,NA,NA,NA,NA,NA
380,landmarks,WEINER MORTON,1910,,579 6 STREET,40.66706,-73.976638,Brooklyn,1,Georgian,Brick,"Residential, multi-family",,,,,NA,NA,NA,NA,NA,NA
381,landmarks,OTTENDORFER LIBRARY,1884,,135 2 AVENUE,40.728772,-73.98756,Manhattan,1,Queen Anne,Philadelphia Brick,"Civic, library",,,,,NA,NA,NA,NA,NA,NA
382,landmarks,VINCENT W ALLEN,1910,,189 PROSPECT PLACE,40.677994,-73.970386,Brooklyn,1,neo-Grec,Brownstone,Residential,,,,,NA,NA,NA,NA,NA,NA
383,landmarks,"THORNHILL, CLARENCEM",1901,,60 MIDWOOD STREET,40.659605,-73.958655,Brooklyn,1,neo-Renaissance,Roman Brick,Residential,,,,,NA,NA,NA,NA,NA,NA
384,landmarks,"VASSILEV, GEORGE JR",1930,,35-44 87 STREET,40.75122,-73.879852,Queens,1,neo-Tudor,Brick,"Outbuilding, garage",,,,,NA,NA,NA,NA,NA,NA
385,landmarks,225-8TH AVE APT CORP,1920,,225 8 AVENUE,40.66984,-73.975797,Brooklyn,1,Renaissance,Limestone,"Residential, multi-family",,,,,NA,NA,NA,NA,NA,NA
386,landmarks,"TOLOSA CORPORATION,NV",1899,,48 EAST 73 STREET,40.772255,-73.96446,Manhattan,1,neo-Grec (original),Flemish-Bond Brick,Residential,,,,,NA,NA,NA,NA,NA,NA
387,landmarks,"JOERG, MICHELE",1901,,537 2 STREET,40.670458,-73.976677,Brooklyn,1,Neoclassical,Roman Brick,Residential,,,,,NA,NA,NA,NA,NA,NA
388,landmarks,EDWIN E FIGUEROA,1899,,267 ALEXANDER AVENUE,40.810503,-73.924825,The Bronx,1,Constructive Expressionism,Brick,Residential,,,,,NA,NA,NA,NA,NA,NA
389,landmarks,"GONZALEZ, JULIO",1935,,34-38 88 STREET,40.753198,-73.879264,Queens,1,neo-Georgian,Red Brick,Residential,,,,,NA,NA,NA,NA,NA,NA
390,landmarks,"TAKESHITA, MAYUMI",1901,,33 WEST 95 STREET,40.791449,-73.966244,Manhattan,1,Queen Anne,Brick,Residential,,,,,NA,NA,NA,NA,NA,NA
391,landmarks,MIA TERRA REALTY CORP,1900,,40 WEST 88 STREET,40.787097,-73.969601,Manhattan,1,Romanesque,Brownstone,Residential,,,,,NA,NA,NA,NA,NA,NA
392,landmarks,34 E 64TH ST RLTY CO,1920,,34 EAST 64 STREET,40.766602,-73.968878,Manhattan,1,Queen Anne,Stone,Residential,,,,,NA,NA,NA,NA,NA,NA
393,landmarks,"GORDON, NEIL",1906,,852 PARK PLACE,40.673364,-73.949267,Brooklyn,1,Renaissance Revival,Brownstone,Residential,,,,,NA,NA,NA,NA,NA,NA
394,landmarks,MAGNONE PETER,1900,,11 WEST 82 STREET,40.782978,-73.971845,Manhattan,1,Queen Anne,Brownstone,Residential,,,,,NA,NA,NA,NA,NA,NA
395,landmarks,SORRENTINO ALFONSO,1930,,156 GATES AVENUE,40.684976,-73.961297,Brooklyn,1,neo-Grec,Brownstone,"Mixed-use, commercial & residential",,,,,NA,NA,NA,NA,NA,NA
396,landmarks,"MARTIN, TONI",1899,,37 CLIFTON PLACE,40.687787,-73.963055,Brooklyn,1,neo-Grec,Brownstone,Residential,,,,,NA,NA,NA,NA,NA,NA
397,landmarks,102 VANDERBILT AVENUE,1905,,102 VANDERBILT AVENUE,40.694586,-73.97013,Brooklyn,1,neo-Grec,Wood,"Residential, single-family",,,,,NA,NA,NA,NA,NA,NA
398,landmarks,ROITMAN FAMILY LIMITE,1900,,28 WEST 85 STREET,40.785009,-73.970805,Manhattan,1,Queen Anne,Brownstone,Residential,,,,,NA,NA,NA,NA,NA,NA
399,landmarks,"JOSIAH MACY,JR.ETC.",1900,,46 EAST 64 STREET,40.766522,-73.968686,Manhattan,1,Queen Anne,Brownstone,Residential,,,,,NA,NA,NA,NA,NA,NA
400,landmarks,ROANOKE CONDOMINIUM,1931,,69 SOUTH OXFORD STREET,40.687793,-73.973735,Brooklyn,1,Byzantine,Stone,"Residential, multi-family",,,,,NA,NA,NA,NA,NA,NA
401,landmarks,"ROSE, CAROLINE",1935,,34-35 87 STREET,40.753152,-73.880181,Queens,1,neo-Georgian,Red Brick,"Outbuilding, garage",,,,,NA,NA,NA,NA,NA,NA
402,landmarks,20 PIERRE ASSOCIATES,1900,,20 CORNELIA STREET,40.731517,-74.001862,Manhattan,1,neo-Grec,Philadelphia Brick,"Residential, multi-family",,,,,NA,NA,NA,NA,NA,NA
403,landmarks,BRUCE HERMAN,1900,,7 SOUTH ELLIOTT PLACE,40.689204,-73.975989,Brooklyn,1,neo-Grec,Brownstone,Residential,,,,,NA,NA,NA,NA,NA,NA
404,landmarks,VANDERBILT PARK OWNER,1910,,675 VANDERBILT AVENUE,40.676602,-73.969233,Brooklyn,1,Renaissance Revival,Iron-Spot Brick,"Residential, multi-family",,,,,NA,NA,NA,NA,NA,NA
405,landmarks,103 WEST SEVENTIETHST,1900,,103 WEST 70 STREET,40.776269,-73.980109,Manhattan,1,Renaissance Revival,Brownstone,Residential,,,,,NA,NA,NA,NA,NA,NA
406,landmarks,ONDERDONK LLC,1930,,817 ONDERDONK AVENUE,40.702251,-73.904271,Queens,1,Romanesque Revival,Yellow Brick,"Residential, multi-family",,,,,NA,NA,NA,NA,NA,NA
407,landmarks,"SCHEIDELMAN, HUDA T",1899,,374 VANDERBILT AVENUE,40.685909,-73.968403,Brooklyn,1,neo-Grec,Brownstone,Residential,,,,,NA,NA,NA,NA,NA,NA
408,landmarks,NANA KOJO TUFFOUR,1910,,82 RUTLAND ROAD,40.658924,-73.958086,Brooklyn,1,neo-Renaissance,Roman Brick,Residential,,,,,NA,NA,NA,NA,NA,NA
409,landmarks,20 PIERRE ASSOCIATES,1900,,20 CORNELIA STREET,40.731517,-74.001862,Manhattan,1,neo-Grec,Philadelphia Brick,"Residential, multi-family",,,,,NA,NA,NA,NA,NA,NA
410,landmarks,KAR FIFTH CORP,1920,,22 EAST 80 STREET,40.777255,-73.962247,Manhattan,1,Queen Anne,Brownstone,"Residential, single-family",,,,,NA,NA,NA,NA,NA,NA
411,landmarks,"YAGEL, G. THOMAS JR.",1899,,221 GREENE AVENUE,40.687046,-73.963001,Brooklyn,1,neo-Grec,Brownstone,Residential,,,,,NA,NA,NA,NA,NA,NA
412,landmarks,BEVERLY C REID,1900,,384 PARK PLACE,40.675917,-73.96507,Brooklyn,1,Renaissance Revival,Brownstone,Residential,,,,,NA,NA,NA,NA,NA,NA
413,landmarks,"IRWIN, GUY L",1899,,434 WEST 162 STREET,40.83537,-73.93892,Manhattan,1,Classical,Rough-faced Stone,Residential,,,,,NA,NA,NA,NA,NA,NA
414,landmarks,155 W 72 ST REALTY CO,1922,,155 WEST 72 STREET,40.778042,-73.980264,Manhattan,1,neo-Romanesque,Brick,"Commercial, store and lofts",,,,,NA,NA,NA,NA,NA,NA
415,landmarks,VANDERBILT PARK OWNE,1910,,673 VANDERBILT AVENUE,40.676651,-73.969215,Brooklyn,1,Renaissance Revival,Iron-Spot Brick,"Residential, multi-family",,,,,NA,NA,NA,NA,NA,NA
416,landmarks,ISSAC RUSSELL,1901,,194 LEFFERTS AVENUE,40.662085,-73.954995,Brooklyn,1,French Renaissance,Brick,Residential,,,,,NA,NA,NA,NA,NA,NA
417,landmarks,"CHATURVEDI, ANKUR",1930,,34-44 85 STREET,40.75299,-73.882069,Queens,1,neo-Georgian,Red Brick,"Outbuilding, garage",,,,,NA,NA,NA,NA,NA,NA
418,landmarks,"WILLOUGHBY, AARON J",1910,,762 BECK STREET,40.816359,-73.898684,The Bronx,1,Romanesque Revival (late),Roman Brick,Residential,,,,,NA,NA,NA,NA,NA,NA
419,landmarks,"MAY , MARGARET T",1899,,100 MILTON STREET,40.729269,-73.956332,Brooklyn,1,Gothic Revival,Wood Frame,Residential,,,,,NA,NA,NA,NA,NA,NA
420,landmarks,"147 W 80TH, LLC",1900,,147 WEST 80 STREET,40.783212,-73.976334,Manhattan,1,Romanesque Revival,Stone,Residential,,,,,NA,NA,NA,NA,NA,NA
421,landmarks,PARKWAY EAST PROPERTI,1920,,58 WEST 72 STREET,40.777243,-73.978903,Manhattan,1,Romanesque Revival,Brick,"Mixed-use, commercial & residential",,,,,NA,NA,NA,NA,NA,NA
422,landmarks,"ROSSIER, NICOLAS",1899,,137 ST JOHNS PLACE,40.676839,-73.975081,Brooklyn,1,Queen Anne,Brownstone,Residential,,,,,NA,NA,NA,NA,NA,NA
423,landmarks,"HWH KENT, LLC",1931,,149 KENT STREET,40.730831,-73.955256,Brooklyn,1,Romanesque Revival (early),Brick,"Religious, sunday school, Dutch Reformed",,,,,NA,NA,NA,NA,NA,NA
424,landmarks,483-85 AMSTERDAM AVEN,1900,,483 AMSTERDAM AVENUE,40.785875,-73.976326,Manhattan,1,neo-Grec,Brick,"Residential, multi-family",,,,,NA,NA,NA,NA,NA,NA
425,landmarks,JAMES E MINARIK,1930,,34-27 84 STREET,40.753013,-73.883,Queens,1,neo-Georgian,Red Brick,"Outbuilding, garage",,,,,NA,NA,NA,NA,NA,NA
426,landmarks,116 2ND AVENUE LLC,1920,,116 2 AVENUE,40.72782,-73.987765,Manhattan,1,neo-Grec,Red Brick,"Residential, multi-family",,,,,NA,NA,NA,NA,NA,NA
427,landmarks,THORNBURG  DEVIN,1901,,457 13 STREET,40.663078,-73.980648,Brooklyn,1,Romanesque Revival,Not determined,Residential,,,,,NA,NA,NA,NA,NA,NA
428,landmarks,"SABATINI, GARRY JAMES",1899,,43 8 AVENUE,40.674335,-73.972371,Brooklyn,1,neo-Grec,Not determined,Residential,,,,,NA,NA,NA,NA,NA,NA
429,landmarks,JOHN F KOOS,1901,,481 1 STREET,40.671193,-73.97646,Brooklyn,1,French neo-Grec,Brownstone,Residential,,,,,NA,NA,NA,NA,NA,NA
430,landmarks,NORTH BERRY CAPITAL G,1931,,37 GREENPOINT AVENUE,40.729756,-73.958998,Brooklyn,1,German Renaissance Revival,Brick,"Industrial, factory",,,,,NA,NA,NA,NA,NA,NA
431,landmarks,"DAVIS, WADE C",1906,,163 WEST 87 STREET,40.78788,-73.973364,Manhattan,1,Renaissance Revival,Stone,Residential,,,,,NA,NA,NA,NA,NA,NA
432,landmarks,"86 MACDOUGAL STREET,",1899,,86 MAC DOUGAL STREET,40.728682,-74.001588,Manhattan,1,neo-Federal,Brick,Residential,,,,,NA,NA,NA,NA,NA,NA
433,landmarks,WRIGHT TONI,1899,,381 MAC DONOUGH STREET,40.682494,-73.930904,Brooklyn,1,Renaissance Revival,Brownstone,"Residential, multi-family",,,,,NA,NA,NA,NA,NA,NA
434,landmarks,"RAHMAN, MOHAMMED Z",1800,,844 ST NICHOLAS AVENUE,40.828916,-73.942127,Manhattan,1,Beaux-Arts,Brick,Residential,,,,,NA,NA,NA,NA,NA,NA
435,landmarks,ERIC GREGG,1910,,53 NORTH MOORE STREET,40.72036,-74.008525,Manhattan,1,neo-Renaissance,Tan Brick,"Commercial, warehouse",,,,,NA,NA,NA,NA,NA,NA
436,landmarks,GLENN C STONE,1930,,34-20 85 STREET,40.753292,-73.882126,Queens,1,neo-Georgian,Red Brick,"Outbuilding, garage",,,,,NA,NA,NA,NA,NA,NA
437,landmarks,"SHEEHAN, MEGAN",1920,,571 7 STREET,40.666558,-73.977348,Brooklyn,1,neo-Renaissance,Limestone,Residential,,,,,NA,NA,NA,NA,NA,NA
438,landmarks,175 WEST BROADWAY REA,1915,,175 WEST BROADWAY,40.717879,-74.007352,Manhattan,1,neo-Grec,Brick,"Commercial, store and lofts",,,,,NA,NA,NA,NA,NA,NA
439,landmarks,"DELUCCA, ADRIAN",1899,,382 VANDERBILT AVENUE,40.685747,-73.968371,Brooklyn,1,neo-Grec,Brownstone,Residential,,,,,NA,NA,NA,NA,NA,NA
440,landmarks,145 WEST 79TH ST OWNE,1928,,145 WEST 79 STREET,40.782515,-73.976796,Manhattan,1,Gothic,Brick,"Residential, multi-family",,,,,NA,NA,NA,NA,NA,NA
441,landmarks,155-159 LAFAYETTE OWN,1920,,159 LAFAYETTE AVENUE,40.687573,-73.971417,Brooklyn,1,Palladian,Brick,"Residential, multi-family",,,,,NA,NA,NA,NA,NA,NA
442,landmarks,"FLORES, KATHRYN",1901,,152 EAST 38 STREET,40.748618,-73.977194,Manhattan,1,Greek Revival,Brick,"Residential, single family",,,,,NA,NA,NA,NA,NA,NA
443,landmarks,THOMAS D STEINER,1901,,143 WEST 78 STREET,40.781818,-73.977262,Manhattan,1,Romanesque Revival,Stone,Residential,,,,,NA,NA,NA,NA,NA,NA
444,landmarks,495 RAR REALTY LLC,1920,,495 12 STREET,40.66341,-73.979584,Brooklyn,1,Neoclassical,Brick,"Residential, multi-family",,,,,NA,NA,NA,NA,NA,NA
445,landmarks,FIDELIS MAXIMUS LLC,1931,,192 ST MARKS AVENUE,40.678839,-73.969993,Brooklyn,1,Renaissance Revival,Brick,"Residential, multi-family",,,,,NA,NA,NA,NA,NA,NA
446,landmarks,SEAN M GIBNEY,1935,,34-32 84 STREET,40.752958,-73.883011,Queens,1,neo-Tudor,Brick,Residential,,,,,NA,NA,NA,NA,NA,NA
447,landmarks,"ROSZAK, SARA JANE",1910,,420 HUDSON STREET,40.730436,-74.006808,Manhattan,1,Italianate,Brick,Residential,,,,,NA,NA,NA,NA,NA,NA
448,landmarks,"LIU, YA CHAO",1935,,34-48 88 STREET,40.752989,-73.879225,Queens,1,neo-Georgian,Red Brick,"Outbuilding, garage",,,,,NA,NA,NA,NA,NA,NA
449,landmarks,"CURI, DANIELLE A",1900,,314 WEST 83 STREET,40.787196,-73.97994,Manhattan,1,Renaissance Revival,Brownstone,Residential,,,,,NA,NA,NA,NA,NA,NA
450,landmarks,BELAIR ROAD APT LLC,1880,,33 BELAIR ROAD,40.611022,-74.0655,SI,1,Queen Anne,Clapboard,"Residential, single family",,,,,NA,NA,NA,NA,NA,NA
451,landmarks,JOSE MARTINEZ,1930,,34-38 85 STREET,40.753067,-73.882083,Queens,1,neo-Georgian,Red Brick,"Outbuilding, garage",,,,,NA,NA,NA,NA,NA,NA
452,landmarks,"MIRACULOUS SOLUTIONS,",1930,,363 GRAND AVENUE,40.685158,-73.962151,Brooklyn,1,Queen Anne,Rubble Stone,"Residential, multi-family",,,,,NA,NA,NA,NA,NA,NA
453,landmarks,"BRAITHWAITE, DOROTHYC",1899,,172 MAC DONOUGH STREET,40.681492,-73.939497,Brooklyn,1,Queen Anne,Brownstone,Residential,,,,,NA,NA,NA,NA,NA,NA
454,landmarks,322 WEST 71ST STREET,1901,,322 WEST 71 STREET,40.779352,-73.985543,Manhattan,1,Romanesque Revival,Masonry,Residential,,,,,NA,NA,NA,NA,NA,NA
455,landmarks,ISTITHMAR HOTELS UNIO,1911,,201 PARK AVENUE SOUTH,40.736644,-73.988944,Manhattan,1,Modern French,Granite,"Commercial, offices",,,,,NA,NA,NA,NA,NA,NA
456,landmarks,TINTORI  JOHN,1910,,583 6 STREET,40.667021,-73.976559,Brooklyn,1,Georgian,Brick,"Residential, multi-family",,,,,NA,NA,NA,NA,NA,NA
457,landmarks,"SHIVERS, PETER D",1905,,125 MIDWOOD STREET,40.65978,-73.956114,Brooklyn,1,neo-Renaissance,Brick,Residential,,,,,NA,NA,NA,NA,NA,NA
458,landmarks,"ZEVSON REALTY CO., L.",1900,,26 WEST 88 STREET,40.786976,-73.969312,Manhattan,1,Romanesque,Brownstone,Residential,,,,,NA,NA,NA,NA,NA,NA
459,landmarks,"HWH 71, LLC",1910,,122 EAST 71 STREET,40.770029,-73.963407,Manhattan,1,neo-Grec (original),Brownstone,Residential,,,,,NA,NA,NA,NA,NA,NA
460,landmarks,"MICHALOWSKI, RENATA",1899,,619 11 STREET,40.663915,-73.978885,Brooklyn,1,Romanesque Revival,Brownstone,Residential,,,,,NA,NA,NA,NA,NA,NA
461,landmarks,"BAUCHMAN, GAIL BETH",1910,,136 WEST 73 STREET,40.778577,-73.979455,Manhattan,1,Queen Anne,Brownstone,Residential,,,,,NA,NA,NA,NA,NA,NA
462,landmarks,"MENGLER, CHRISTOPHER",1925,,236-12 CENTER DRIVE,40.77306,-73.750325,Queens,1,Italianate,Wood Frame,"Residential, single-family",,,,,NA,NA,NA,NA,NA,NA
463,landmarks,ELLIANA 90 LLC,1930,,28 WEST 90 STREET,40.788393,-73.968741,Manhattan,1,Francois I,Brownstone,Residential,,,,,NA,NA,NA,NA,NA,NA
464,landmarks,"CHOWDHURY, KHALIQUE",1935,,34-44 88 STREET,40.753072,-73.879243,Queens,1,neo-Georgian,Red Brick,Residential,,,,,NA,NA,NA,NA,NA,NA
465,landmarks,"ROSS, DAVID S",1920,,476 WEST 142 STREET,40.823043,-73.948376,Manhattan,1,Spanish Renaissance,Limestone,Residential,,,,,NA,NA,NA,NA,NA,NA
466,landmarks,304 BLEECKER TREVI LL,1910,,304 BLEECKER STREET,40.732635,-74.003817,Manhattan,1,Federal (late)(original),Flemish-Bond Brick,"Mixed-use, commercial & residential",,,,,NA,NA,NA,NA,NA,NA
467,landmarks,"KONTOKOSTA,  CONSTANT",1901,,562 3 STREET,40.669678,-73.97685,Brooklyn,1,Romanesque Revival,Brownstone,Residential,,,,,NA,NA,NA,NA,NA,NA
468,landmarks,MARC CUSUMANO,1900,,63 WEST 90 STREET,40.788805,-73.969683,Manhattan,1,Romanesque Revival,Brick,Residential,,,,,NA,NA,NA,NA,NA,NA
469,landmarks,DELORES ERNANDEZ,1901,,375 STERLING PLACE,40.675116,-73.965676,Brooklyn,1,Renaissance Revival,Brownstone,Residential,,,,,NA,NA,NA,NA,NA,NA
470,landmarks,GROSSFIELD RENA E,1899,,103 PARK PLACE,40.678393,-73.974943,Brooklyn,1,French,Brownstone,Residential,,,,,NA,NA,NA,NA,NA,NA
471,landmarks,"110 READE STREET, LLC",1900,,110 READE STREET,40.715902,-74.008557,Manhattan,1,Second Empire,Masonry,"Commercial, store and lofts",,,,,NA,NA,NA,NA,NA,NA
472,landmarks,"JOHNSON, SCOTT LOCHWO",1901,,535 1 STREET,40.67018,-73.974359,Brooklyn,1,Regency,Limestone,Residential,,,,,NA,NA,NA,NA,NA,NA
473,landmarks,HOTEL DES ARTISTES IN,1917,,11 WEST 67 STREET,40.773219,-73.978702,Manhattan,1,Tudor,Brick,"Residential, multi-family",,,,,NA,NA,NA,NA,NA,NA
474,landmarks,321 SIXTH AVENUE PART,1920,,321 AVENUE OF THE AMER,40.730996,-74.001461,Manhattan,1,Italianate,Brick,Residential,,,,,NA,NA,NA,NA,NA,NA
475,landmarks,"325 W END AVE OWNERS,",1916,,325 WEST END AVENUE,40.782036,-73.98287,Manhattan,1,Jacobean,Orange Brick,"Residential, multi-family",,,,,NA,NA,NA,NA,NA,NA
476,landmarks,130 W. 78TH ST.,1910,,130 WEST 78 STREET,40.781703,-73.977031,Manhattan,1,Renaissance Revival,Brick,Residential,,,,,NA,NA,NA,NA,NA,NA
477,landmarks,COLUMBIA GRAMMAR AND,1910,,34 WEST 94 STREET,40.790802,-73.966685,Manhattan,1,Romanesque Revival,Brick,Residential,,,,,NA,NA,NA,NA,NA,NA
478,landmarks,EUMORPHA LLC,1910,,61 ATLANTIC AVENUE,40.691307,-73.998186,Brooklyn,1,Modern,Brick,Residential,,,,,NA,NA,NA,NA,NA,NA
479,landmarks,ERIC GREGG,1910,,53 NORTH MOORE STREET,40.72036,-74.008525,Manhattan,1,neo-Renaissance,Tan Brick,"Commercial, warehouse",,,,,NA,NA,NA,NA,NA,NA
480,film,*batteries not included,1987,Matthew Robbins,E. 5th St.<br>East Village<br>Manhattan,40.7224453,-73.97865057,Manhattan,NA,,,,East Village,http://imdb.com/title/tt0092494/,,,NA,NA,NA,NA,NA,NA
481,film,12 Angry Men,1957,Sidney Lumet,New York County Courthouse<br>40 Foley Square<br>Lower Manhattan,40.7137,-74.0079,Manhattan,NA,,,,Lower Manhattan,http://imdb.com/title/tt0050083/,,,NA,NA,NA,NA,NA,NA
482,film,13 Going on 30,2004,Gary Winick,W. 47th St. and Seventh Ave.<br>Times Square<br>Manhattan,40.75922049,-73.98462117,Manhattan,NA,,,,Times Square,http://www.imdb.com/title/tt0337563/,,,NA,NA,NA,NA,NA,NA
483,film,15 Minutes,2001,John Herzfeld,E. 60-66th St. and Madison Ave.<br>Upper East Side<br>Manhattan,40.7661,-73.9696,Manhattan,NA,,,,Upper East Side,http://www.imdb.com/title/tt0179626/,,,NA,NA,NA,NA,NA,NA
484,film,25th Hour,2002,Spike Lee,World Trade Center<br>Lower Manhattan,40.71179263,-74.01232839,Manhattan,NA,,,,Lower Manhattan,http://www.imdb.com/title/tt0307901/,,,NA,NA,NA,NA,NA,NA
485,film,25th Hour,2002,Spike Lee,Carl Schurz Park<br>Upper East Side<br>Manhattan,40.77506559,-73.94312739,Manhattan,NA,,,,Upper East Side,http://www.imdb.com/title/tt0307901/,,,NA,NA,NA,NA,NA,NA
486,film,A Perfect Murder,1998,Andrew Davis,Long Island City,40.74607025,-73.95038009,Queens,NA,,,,Queens,http://www.imdb.com/title/tt0120787/,,,NA,NA,NA,NA,NA,NA
487,film,A Thousand Clowns,1965,Fred Coe,Statue of Liberty<br>Liberty Island<br>New York Harbor,40.68958731,-74.04379606,Manhattan,NA,,,,New York Harbor,http://www.imdb.com/title/tt0059798/,,,NA,NA,NA,NA,NA,NA
488,film,Across the Sea of Time,1997,Stephen Low,New York Harbor,40.69899091,-74.03849602,Manhattan,NA,,,,New York Harbor,http://imdb.com/title/tt0112286/,,,NA,NA,NA,NA,NA,NA
489,film,After Hours,1985,Martin Scorsese,Mercer and Grand<br>SoHo<br>Manhattan,40.7213,-74.0015,Manhattan,NA,,,,SoHo,http://www.imdb.com/title/tt0088680/,,,NA,NA,NA,NA,NA,NA
490,film,Alice,1990,Woody Allen,E. 95th St. off Madison Ave.<br>Upper East Side<br>Manhattan,40.7866,-73.9547,Manhattan,NA,,,,Upper East Side,http://www.imdb.com/title/tt0099012/,,,NA,NA,NA,NA,NA,NA
491,film,American Psycho,2000,Mary Harron,Chinatown<br>Manhattan,40.71621654,-73.99808049,Manhattan,NA,,,,Chinatown,http://www.imdb.com/title/tt0144084/,,,NA,NA,NA,NA,NA,NA
492,film,An Unmarried Woman,1978,Paul Mazursky,Mercer St. between Spring and Broome<br>SoHo<br>Manhattan,40.72255913,-74.00029063,Manhattan,NA,,,,SoHo,http://www.imdb.com/title/tt0078444/,,,NA,NA,NA,NA,NA,NA
493,film,Annie Hall,1977,Woody Allen,Coney Island<br>Brooklyn,40.57360922,-73.97596836,Brooklyn,NA,,,,Brooklyn,http://www.imdb.com/title/tt0075686/,,,NA,NA,NA,NA,NA,NA
494,film,Annie Hall,1977,Woody Allen,Pier 11<br>Manhattan,40.70420461,-74.0060252,Manhattan,NA,,,,Lower Manhattan,http://www.imdb.com/title/tt0075686/,,,NA,NA,NA,NA,NA,NA
495,film,Annie Hall,1977,Woody Allen,Foot of 59th St. Bridge<br>Upper East Side<br>Manhattan,40.75780643,-73.95962834,Manhattan,NA,,,,Midtown,http://www.imdb.com/title/tt0075686/,,,NA,NA,NA,NA,NA,NA
496,film,Annie Hall,1977,Woody Allen,E. 68th St. between Park Ave. and Madison Ave.<br>Upper East Side<br>Manhattan,40.76890676,-73.96660209,Manhattan,NA,,,,Upper East Side,http://www.imdb.com/title/tt0075686/,,,NA,NA,NA,NA,NA,NA
497,film,Annie Hall,1977,Woody Allen,W. 95th St.<br>Upper West Side<br>Manhattan,40.79163797,-73.96653771,Manhattan,NA,,,,Upper West Side,http://www.imdb.com/title/tt0075686/,,,NA,NA,NA,NA,NA,NA
498,film,Arthur,1981,Steve Gordon,Bergdorf's at 754 Fifth Ave.<br>Midtown<br>Manhattan,40.763334,-73.973891,Manhattan,NA,,,,Midtown,http://www.imdb.com/title/tt0082031/,,,NA,NA,NA,NA,NA,NA
499,film,As Good As It Gets,1997,James L. Brooks,Sixth Ave. between 11th St. and 12th St.<br>West Village<br>Manhattan,40.7354051,-73.99831653,Manhattan,NA,,,,West Village,http://imdb.com/title/tt0119822/,,,NA,NA,NA,NA,NA,NA
500,film,Barefoot in the Park,1967,Gene Saks,Washington Square Park<br>West Village<br>Manhattan,40.7307223,-73.99651408,Manhattan,NA,,,,West Village,http://www.imdb.com/title/tt0061385/,,,NA,NA,NA,NA,NA,NA
501,film,Barefoot in the Park,1967,Gene Saks,Greenwich St. and Christopher St.<br>Greenwich Village<br>Manhattan,40.73311252,-74.00741458,Manhattan,NA,,,,SoHo,http://www.imdb.com/title/tt0061385/,,,NA,NA,NA,NA,NA,NA
502,film,Basquiat,1996,Julian Schnabel,Lower East Side<br>Manhattan,40.71818443,-73.98885369,Manhattan,NA,,,,Lower East Side,http://www.imdb.com/title/tt0115632/,,,NA,NA,NA,NA,NA,NA
503,film,Bed of Roses,1996,Michael Goldenberg,Chelsea,40.74324155,-74.00196433,Manhattan,NA,,,,Chelsea,http://www.imdb.com/title/tt0115644/,,,NA,NA,NA,NA,NA,NA
504,film,BIG,1988,Penny Marshall,F.A.O. Schwarz at 767 Fifth Ave.<br>Midtown<br>Manhattan,40.764053,-73.972978,Manhattan,NA,,,,Midtown,http://www.imdb.com/title/tt0094737/,,,NA,NA,NA,NA,NA,NA
505,film,Blue in the Face,1995,"Paul Auster,Wayne Wang",Prospect Park West and 16th St.<br>Windsor Terrace<br>Brooklyn,40.65749448,-73.97406936,Brooklyn,NA,,,,Brooklyn,http://www.imdb.com/title/tt0112541/,,,NA,NA,NA,NA,NA,NA
506,film,Breakfast at Tiffany's,1961,Blake Edwards,Tiffany & Co. at 727 Fifth Ave.<br>Midtown<br>Manhattan,40.76251,-73.974142,Manhattan,NA,,,,Midtown,http://www.imdb.com/title/tt0054698/,,,NA,NA,NA,NA,NA,NA
507,film,Breakfast at Tiffany's,1961,Blake Edwards,E. 71st St.<br>Upper East Side<br>Manhattan,40.77136061,-73.96643043,Manhattan,NA,,,,Upper East Side,http://www.imdb.com/title/tt0054698/,,,NA,NA,NA,NA,NA,NA
508,film,Breakfast at Tiffany's,1961,Blake Edwards,Central Park Mall<br>Manhattan,40.77321313,-73.97127986,Manhattan,NA,,,,Central Park,http://www.imdb.com/title/tt0054698/,,,NA,NA,NA,NA,NA,NA
509,film,Broadway Danny Rose,1984,Woody Allen,Carnegie Deli at 854 Seventh Ave.<br>Midtown<br>Manhattan,40.764073,-73.981288,Manhattan,NA,,,,Midtown,http://www.imdb.com/title/tt0087003/,,,NA,NA,NA,NA,NA,NA
510,film,Cagney & Lacey,1982-1988,"Barbara Avedon,Barbara Corday,(more)",Howard Beach<br>Queens,40.66553541,-73.8412571,Queens,NA,,,,Queens,http://imdb.com/title/tt0083395/,,,NA,NA,NA,NA,NA,NA
511,film,Center Stage,2000,Nicholas Hytner,American Ballet Theater<br>890 Broadway<br>Manhattan,40.738641,-73.989774,Manhattan,NA,,,,Midtown,http://www.imdb.com/title/tt0210616/,,,NA,NA,NA,NA,NA,NA
512,film,Chasing Amy,1997,Kevin Smith,269 E. Houston St.<br>Lower East Side<br>Manhattan,40.721516,-73.984616,Manhattan,NA,,,,Lower East Side,http://www.imdb.com/title/tt0118842/,,,NA,NA,NA,NA,NA,NA
513,film,Chelsea Walls,2001,Ethan Hawke,Chelsea Hotel on W. 23rd St.<br>Chelsea<br>Manhattan,40.744287,-73.996497,Manhattan,NA,,,,Midtown,http://www.imdb.com/title/tt0226935/,,,NA,NA,NA,NA,NA,NA
514,film,Clockers,1995,Spike Lee,Gowanus Houses<br>Brooklyn,40.6841528,-73.98804903,Brooklyn,NA,,,,Brooklyn,http://www.imdb.com/title/tt0112688/,,,NA,NA,NA,NA,NA,NA
515,film,Coogan's Bluff,1968,Don Siegel,Fort Tryon Park<br>Manhattan,40.85946031,-73.93408298,Manhattan,NA,,,,Fort George,http://www.imdb.com/title/tt0062824/,,,NA,NA,NA,NA,NA,NA
516,film,Cotton Comes to Harlem,1970,Ossie Davis,Harlem,40.80650084,-73.93928647,Manhattan,NA,,,,Harlem,http://imdb.com/title/tt0065579/,,,NA,NA,NA,NA,NA,NA
517,film,Crocodile Dundee,1986,Peter Faiman,Fifth Ave. and 53rd St.<br>Midtown<br>Manhattan,40.7604,-73.9758,Manhattan,NA,,,,Midtown,http://imdb.com/title/tt0090555/,,,NA,NA,NA,NA,NA,NA
518,film,Crocodile Dundee II,1988,John Cornell,"Chambers St. near Centre St.<br>Lower Manhattan
",40.713452,-74.004373,Manhattan,NA,,,,SoHo,http://www.imdb.com/title/tt0092493/,,,NA,NA,NA,NA,NA,NA
519,film,Crooklyn,1994,Spike Lee,Stuyvesant Ave. and Macon St.<br>Brooklyn,40.6831114,-73.93205523,Brooklyn,NA,,,,Brooklyn,http://www.imdb.com/title/tt0109504/,,,NA,NA,NA,NA,NA,NA
520,film,Crossing Delancey,1988,Joan Micklin Silver,35 Essex St.<br>Lower East Side<br>Manhattan,40.71605,-73.989749,Manhattan,NA,,,,Lower East Side,http://www.imdb.com/title/tt0094921/,,,NA,NA,NA,NA,NA,NA
521,film,Cruising,1980,William Friedkin,West Village<br>Manhattan,40.72898243,-74.0008378,Manhattan,NA,,,,West Village,http://www.imdb.com/title/tt0080569/,,,NA,NA,NA,NA,NA,NA
522,film,Cruising,1980,William Friedkin,Central Park<br>Manhattan,40.77920907,-73.9711833,Manhattan,NA,,,,Central Park,http://www.imdb.com/title/tt0080569/,,,NA,NA,NA,NA,NA,NA
523,film,Death to Smoochy,2002,Danny DeVito,Seventh Ave. and 48th St.<br>Times Square<br>Manhattan,40.7598,-73.9842,Manhattan,NA,,,,Times Square,http://www.imdb.com/title/tt0266452/,,,NA,NA,NA,NA,NA,NA
524,film,Death Wish,1974,Michael Winner,Subway Station near Court St.<br>Brooklyn,40.6938,-73.9904,Brooklyn,NA,,,,Brooklyn,http://www.imdb.com/title/tt0071402/,,,NA,NA,NA,NA,NA,NA
525,film,Desperately Seeking Susan,1985,Susan Seidelman,St. Marks Place<br>East Village<br>Manhattan,40.729171,-73.98939,Manhattan,NA,,,,East Village,http://www.imdb.com/title/tt0089017/,,,NA,NA,NA,NA,NA,NA
526,film,Desperately Seeking Susan,1985,Susan Seidelman,George Washington Bus Terminal<br>Manhattan,40.849284,-73.936966,Manhattan,NA,,,,Fort George,http://www.imdb.com/title/tt0089017/,,,NA,NA,NA,NA,NA,NA
527,film,Die Hard: With a Vengeance,1995,John McTiernan,Central Park South<br>Manhattan,40.76705413,-73.97899389,Manhattan,NA,,,,Central Park,http://www.imdb.com/title/tt0112864/,,,NA,NA,NA,NA,NA,NA
528,film,Do the Right Thing,1989,Spike Lee,Stuyvesant Ave.<br>Bedford-Stuyvesant<br>Brooklyn,40.68931072,-73.93328905,Brooklyn,NA,,,,Brooklyn,http://www.imdb.com/title/tt0097216/,,,NA,NA,NA,NA,NA,NA
529,film,Dog Day Afternoon,1972,Sidney Lumet,Prospect Park South and 16th St.<br>Brooklyn,40.6572503,-73.97421956,Brooklyn,NA,,,,Brooklyn,http://www.imdb.com/title/tt0072890/,,,NA,NA,NA,NA,NA,NA
530,film,Downtown 81 / New York Beat Movie,1981,Edo Bertoglio,The Empire State Building<br>Midtown<br>Manhattan,40.74834612,-73.98488402,Manhattan,NA,,,,Midtown,http://www.imdb.com/title/tt0208993/,,,NA,NA,NA,NA,NA,NA
531,film,Downtown 81 / New York Beat Movie,1981,Edo Bertoglio,Guggenheim Museum<br>Upper East Side<br>Manhattan,40.782972,-73.959376,Manhattan,NA,,,,Upper East Side,http://www.imdb.com/title/tt0208993/,,,NA,NA,NA,NA,NA,NA
532,film,Eternal Sunshine of the Spotless Mind,2004,Michel Gondry,Orchard St. and Rivington St.<br>Lower East Side<br>Manhattan,40.7203,-73.9891,Manhattan,NA,,,,Lower East Side,http://www.imdb.com/title/tt0338013/,,,NA,NA,NA,NA,NA,NA
533,film,Fame,1980,Alan Parker,High School of the Performing Arts<br>120 W. 46th St.<br>Manhattan,40.757566,-73.983047,Manhattan,NA,,,,Times Square,http://www.imdb.com/title/tt0080716/,,,NA,NA,NA,NA,NA,NA
534,film,Fame,1980,Alan Parker,W. 59th St. and Tenth Ave.<br>Upper West Side<br>Manhattan,40.7704,-73.9876,Manhattan,NA,,,,Upper West Side,http://www.imdb.com/title/tt0080716/,,,NA,NA,NA,NA,NA,NA
535,film,Ferry Tales,2003,Katja Esson,St. George Station<br>Staten Island,40.64456836,-74.072721,Staten Island,NA,,,,Staten Island,http://www.imdb.com/title/tt0363607/,,,NA,NA,NA,NA,NA,NA
536,film,Force of Evil,1948,Abraham Polonsky,George Washington Bridge<br>Manhattan,40.84936524,-73.94247293,Manhattan,NA,,,,Washington Heights,http://imdb.com/title/tt0040366/,,,NA,NA,NA,NA,NA,NA
537,film,Fort Apache the Bronx,1981,Daniel Petrie,A South Bronx rooftop<br>The Bronx,40.81744688,-73.90884876,The Bronx,NA,,,,The Bronx,http://imdb.com/title/tt0082402/,,,NA,NA,NA,NA,NA,NA
538,film,Ghostbusters,1984,Ivan Reitman,Columbus Circle<br>Upper West Side<br>Manhattan,40.76812671,-73.98195505,Manhattan,NA,,,,Upper West Side,http://www.imdb.com/title/tt0087332/,,,NA,NA,NA,NA,NA,NA
539,film,Ghostbusters,1984,Ivan Reitman,W. 66th St. and Central Park West<br>Upper West Side<br>Manhattan,40.7724,-73.9787,Manhattan,NA,,,,Upper West Side,http://www.imdb.com/title/tt0087332/,,,NA,NA,NA,NA,NA,NA
540,film,Godspell,1973,David Greene,World Trade Center<br>Lower Manhattan,40.71226431,-74.01123941,Manhattan,NA,,,,Lower Manhattan,http://www.imdb.com/title/tt0070121/,,,NA,NA,NA,NA,NA,NA
541,film,Godspell,1973,David Greene,Times Square<br>Manhattan,40.75931801,-73.98484647,Manhattan,NA,,,,Times Square,http://www.imdb.com/title/tt0070121/,,,NA,NA,NA,NA,NA,NA
542,film,Godspell,1973,David Greene,Lincoln Center<br>Upper West Side<br>Manhattan,40.77230313,-73.98337662,Manhattan,NA,,,,Upper West Side,http://www.imdb.com/title/tt0070121/,,,NA,NA,NA,NA,NA,NA
543,film,Godspell,1973,David Greene,Lincoln Center Plaza<br>Upper West Side<br>Manhattan,40.77335125,-73.98368776,Manhattan,NA,,,,Upper West Side,http://www.imdb.com/title/tt0070121/,,,NA,NA,NA,NA,NA,NA
544,film,Godspell,1973,David Greene,Bethesda Fountain<br>Central Park<br>Manhattan,40.77436686,-73.97078633,Manhattan,NA,,,,Central Park,http://www.imdb.com/title/tt0070121/,,,NA,NA,NA,NA,NA,NA
545,film,Godspell,1973,David Greene,Ramble<br>Central Park<br>Manhattan,40.77646303,-73.97097945,Manhattan,NA,,,,Central Park,http://www.imdb.com/title/tt0070121/,,,NA,NA,NA,NA,NA,NA
546,film,Godspell,1973,David Greene,Under Triboro Bridge<br>Randalls Island,40.78457084,-73.92944813,Manhattan,NA,,,,Randall's Island,http://www.imdb.com/title/tt0070121/,,,NA,NA,NA,NA,NA,NA
547,film,Godspell,1973,David Greene,Soldiers and Sailor's Monument<br>Riverside Park (at 89th St.)<br>Manhattan,40.79230402,-73.97877395,Manhattan,NA,,,,Upper West Side,http://www.imdb.com/title/tt0070121/,,,NA,NA,NA,NA,NA,NA
548,film,Godzilla,1988,Roland Emmerich,Madison Square Garden<br>Midtown<br>Manhattan,40.75034558,-73.99149835,Manhattan,NA,,,,Midtown,http://www.imdb.com/title/tt0120685/,,,NA,NA,NA,NA,NA,NA
549,film,Goodfellas,1990,Martin Scorsese,24-13 32nd St.<br>Astoria<br>Queens,40.77148249,-73.91521633,Queens,NA,,,,Queens,http://imdb.com/title/tt0099685/,,,NA,NA,NA,NA,NA,NA
550,film,Green Card,1990,Peter Weir,W. 76th St & Columbus<br>Upper West Side<br>Manhattan,40.78,-73.9769,Manhattan,NA,,,,Upper West Side,http://www.imdb.com/title/tt0099699/,,,NA,NA,NA,NA,NA,NA
551,film,Greetings,1968,Brian De Palma,39 Whitehall St.<br>Lower Manhattan,40.702951,-74.012777,Manhattan,NA,,,,Lower Manhattan,http://www.imdb.com/title/tt0063036/,,,NA,NA,NA,NA,NA,NA
552,film,Hair,1979,Milos Forman,Sheep's Meadow<br>Central Park<br>Manhattan,40.77179937,-73.97488475,Manhattan,NA,,,,Central Park,http://www.imdb.com/title/tt0079261/,,,NA,NA,NA,NA,NA,NA
553,film,Hannah and Her Sisters,1986,Woody Allen,Spring St. and Green St.<br>SoHo<br>Manhattan,40.7238,-74.0004,Manhattan,NA,,,,SoHo,http://www.imdb.com/title/tt0091167/,,,NA,NA,NA,NA,NA,NA
554,film,Hannah and Her Sisters,1986,Woody Allen,W. 95th St. and West End Ave.<br>Upper West Side<br>Manhattan,40.7946,-73.9737,Manhattan,NA,,,,Upper West Side,http://www.imdb.com/title/tt0091167/,,,NA,NA,NA,NA,NA,NA
555,film,Hannah and Her Sisters,1986,Woody Allen,Metro Theatre (2626 Broadway)<br>Upper West Side<br>Manhattan,40.796766,-73.969947,Manhattan,NA,,,,Upper West Side,http://www.imdb.com/title/tt0091167/,,,NA,NA,NA,NA,NA,NA
556,film,Heights,2005,Chris Terrio,Municipal Building<br>1 Centre St.<br>Lower Manhattan,40.71302062,-74.00337517,Manhattan,NA,,,,Lower Manhattan,http://imdb.com/title/tt0382073/,,,NA,NA,NA,NA,NA,NA
557,film,Hitch,2005,Andy Tennant,Spring St. and Greene St.<br>SoHo<br>Manhattan,40.7238,-74.0004,Manhattan,NA,,,,SoHo,http://www.imdb.com/title/tt0386588/,,,NA,NA,NA,NA,NA,NA
558,film,Hudson Hawk,1991,Michael Lehmann,Brooklyn Bridge,40.70310659,-73.99318814,Brooklyn,NA,,,,Brooklyn,http://www.imdb.com/title/tt0102070/,,,NA,NA,NA,NA,NA,NA
559,film,I Like It Like That,1994,Darnell Martin,170th St. in Morrisania<br>The Bronx,40.83870044,-73.91373038,The Bronx,NA,,,,The Bronx,http://www.imdb.com/title/tt0110091/,,,NA,NA,NA,NA,NA,NA
560,film,I Shot Andy Warhol,1996,Mary Harron,W. 20th St. <br>Chelsea<br>Manhattan,40.74053466,-73.99303257,Manhattan,NA,,,,Chelsea,http://www.imdb.com/title/tt0116594/,,,NA,NA,NA,NA,NA,NA
561,film,Inside Man,2006,Spike Lee,William St. and Wall St.<br>Lower Manhattan,40.7064,-74.0095,Manhattan,NA,,,,Lower Manhattan,http://imdb.com/title/tt0454848/,,,NA,NA,NA,NA,NA,NA
562,film,It Could Happen to You,1994,Andrew Bergman,W. Broadway and N. Moore St.<br>TriBeCa<br>Manhattan,40.7197,-74.0059,Manhattan,NA,,,,TriBeCa,http://www.imdb.com/title/tt0110167/,,,NA,NA,NA,NA,NA,NA
563,film,Jeremy,1973,Arthur Barron,Central Park<br>Manhattan,40.77474873,-73.97250831,Manhattan,NA,,,,Central Park,http://www.imdb.com/title/tt0070238/,,,NA,NA,NA,NA,NA,NA
564,film,Jumpin' at the Boneyard,1992,Jeff Stanzler,Burned-out blocks in the Bronx,40.83438208,-73.91993165,The Bronx,NA,,,,The Bronx,http://imdb.com/title/tt0102174/,,,NA,NA,NA,NA,NA,NA
565,film,Jungle Fever,1991,Spike Lee,Bensonhurst<br>Brooklyn,40.6019,-73.9938,Brooklyn,NA,,,,Brooklyn,http://www.imdb.com/title/tt0102175/,,,NA,NA,NA,NA,NA,NA
566,film,Jungle Fever,1991,Spike Lee,Strivers' Row<br>Harlem<br>Manhattan,40.81803961,-73.94421637,Manhattan,NA,,,,Harlem,,,,NA,NA,NA,NA,NA,NA
567,film,Kids,1995,Larry Clark,Washington Square Park<br>West Village<br>Manhattan,40.7310719,-73.99686277,Manhattan,NA,,,,West Village,http://www.imdb.com/title/tt0113540/,,,NA,NA,NA,NA,NA,NA
568,film,Killer's Kiss,1957,Stanley Kubrick,Rooftops<br>Lower Manhattan,40.70821425,-74.01365876,Manhattan,NA,,,,Lower Manhattan,http://imdb.com/title/tt0048254/,,,NA,NA,NA,NA,NA,NA
569,film,King Kong,1976,John Guillermin,World Trade Center<br>Lower Manhattan,40.71254894,-74.01477993,Manhattan,NA,,,,Lower Manhattan,http://www.imdb.com/title/tt0074751/,,,NA,NA,NA,NA,NA,NA
570,film,Kissing Jessica Stein,2001,Charles Herman-Wurmfeld,E. 6th St.<br>East Village<br>Manhattan,40.7255,-73.984,Manhattan,NA,,,,East Village,http://www.imdb.com/title/tt0264761/,,,NA,NA,NA,NA,NA,NA
571,film,Klute,1971,Alan J. Pakula,World Trade Center<br>Lower Manhattan,40.71126402,-74.01129305,Manhattan,NA,,,,Lower Manhattan,http://www.imdb.com/title/tt0067309/,,,NA,NA,NA,NA,NA,NA
572,film,Klute,1971,Alan J. Pakula,Hell's Kitchen<br>Ninth Ave.<br>Manhattan,40.76160968,-73.99031281,Manhattan,NA,,,,Midtown,http://www.imdb.com/title/tt0067309/,,,NA,NA,NA,NA,NA,NA
573,film,Klute,1971,Alan J. Pakula,123rd St.<br>Harlem<br>Manhattan,40.80091344,-73.93336952,Manhattan,NA,,,,Harlem,http://www.imdb.com/title/tt0067309/,,,NA,NA,NA,NA,NA,NA
574,film,Kojak,1973-1978,"Abby Mann,(more)",60 Baxter St.<br>Lower Manhattan,40.715847,-74.000547,Manhattan,NA,,,,Lower Manhattan,http://imdb.com/title/tt0069599/,,,NA,NA,NA,NA,NA,NA
575,film,Kojak,1973-1978,"Abby Mann,(more)",Lincoln Center<br>Upper West Side<br>Manhattan,40.77240875,-73.98376286,Manhattan,NA,,,,Upper West Side,http://imdb.com/title/tt0069599/,,,NA,NA,NA,NA,NA,NA
576,film,Kramer vs. Kramer,1979,Robert Benton,P.S. 6 (45 E. 81st St.)<br>Upper East Side<br>Manhattan,40.777554,-73.960694,Manhattan,NA,,,,Upper East Side,http://www.imdb.com/title/tt0079417/,,,NA,NA,NA,NA,NA,NA
577,film,Law & Order,1988- Today,"Dick Wolf,(more)",Worth St.<br>Lower Manhattan,40.7171,-74.0063,Manhattan,NA,,,,Lower Manhattan,http://imdb.com/title/tt0098844/,,,NA,NA,NA,NA,NA,NA
578,film,Little Fugitive,1953,"Morris Engel,Ruth Orkin,(more)",Coney Island<br>Brooklyn,40.57463602,-73.98080707,Brooklyn,NA,,,,Brooklyn,http://imdb.com/title/tt0046004/,,,NA,NA,NA,NA,NA,NA
579,film,Little Manhattan,2005,Mark Levin,Christopher St. Station<br>Sheridan Square<br>Manhattan,40.73360844,-74.00279582,Manhattan,NA,,,,West Village,http://www.imdb.com/title/tt0412922/,,,NA,NA,NA,NA,NA,NA
580,film,LUV,1967,Clive Donner,Manhattan Bridge<br>Brooklyn,40.70507488,-73.98961008,Brooklyn,NA,,,,Brooklyn,http://www.imdb.com/title/tt0061927/,,,NA,NA,NA,NA,NA,NA
581,film,Mad Hot Ballroom,2005,Marilyn Agrelo,Washington Heights<br>Harlem<br>Manhattan,40.83228774,-73.94633532,Manhattan,NA,,,,Harlem,http://www.imdb.com/title/tt0438205/,,,NA,NA,NA,NA,NA,NA
582,film,Malcolm X,1992,Spike Lee,"Adjacent to Apollo Theater,<br>W. 125th St. between 7th and 8th Aves<br>Harlem, Manhattan",40.810038,-73.95045,Manhattan,NA,,,,Harlem,http://www.imdb.com/title/tt0104797/,,,NA,NA,NA,NA,NA,NA
583,film,Man Push Cart,2005,Ramin Bahrani,Midtown<br>Manhattan,40.7552,-73.9733,Manhattan,NA,,,,Midtown,http://imdb.com/title/tt0464105/,,,NA,NA,NA,NA,NA,NA
584,film,Manhattan,1979,Woody Allen,MoMA<br>W. 53rd St.<br>Manhattan,40.76113835,-73.97720218,Manhattan,NA,,,,Midtown,http://www.imdb.com/title/tt0079522/,,,NA,NA,NA,NA,NA,NA
585,film,Marty,1955,Delbert Mann,The Bronx,40.839742,-73.880923,The Bronx,NA,,,,The Bronx,http://imdb.com/title/tt0048356/,,,NA,NA,NA,NA,NA,NA
586,film,McCloud,1970-1977,"Lou Antonio,Jack Arnold,(more)",Manhattan,40.75728631,-74.00074124,Manhattan,NA,,,,Midtown,http://imdb.com/title/tt0065317/,,,NA,NA,NA,NA,NA,NA
587,film,Mean Streets,1973,Martin Scorsese,Hester St. and Baxter St.<br>Little Italy<br>Manhattan,40.7185,-73.9988,Manhattan,NA,,,,Lower Manhattan,http://www.imdb.com/title/tt0070379/,,,NA,NA,NA,NA,NA,NA
588,film,Men in Black,1997,Barry Sonnenfeld,Battery Park<br>Lower Manhattan,40.70435915,-74.01472628,Manhattan,NA,,,,Lower Manhattan,http://www.imdb.com/title/tt0119654/,,,NA,NA,NA,NA,NA,NA
589,film,Men in Black,1997,Barry Sonnenfeld,MacDougal St.<br>SoHo<br>Manhattan,40.73164913,-73.99913192,Manhattan,NA,,,,SoHo,http://www.imdb.com/title/tt0119654/,,,NA,NA,NA,NA,NA,NA
590,film,Men in Black,1997,Barry Sonnenfeld,Grand Central Station<br>87 E. 42nd St.<br>Manhattan,40.752412,-73.977979,Manhattan,NA,,,,Midtown,http://www.imdb.com/title/tt0119654/,,,NA,NA,NA,NA,NA,NA
591,film,Men in Black,1997,Barry Sonnenfeld,Guggenheim Museum<br>E. 88th St. and Fifth Ave.<br>Manhattan,40.78257241,-73.95934939,Manhattan,NA,,,,Upper East Side,http://www.imdb.com/title/tt0119654/,,,NA,NA,NA,NA,NA,NA
592,film,Midnight Cowboy,1969,John Schlesinger,1414 Broadway<br>Midtown<br>Manhattan,40.753767,-73.986866,Manhattan,NA,,,,Midtown,http://www.imdb.com/title/tt0064665/,,,NA,NA,NA,NA,NA,NA
593,film,Midnight Cowboy,1968,John Schlesinger,Times Square<br>Manhattan,40.75819652,-73.98512006,Manhattan,NA,,,,Times Square,http://www.imdb.com/title/tt0064665/,,,NA,NA,NA,NA,NA,NA
594,film,Mirage,1965,Edward Dmytryk,Fifth Ave. and 66th St.<br>Central Park<br>Manhattan,40.7687,-73.9698,Manhattan,NA,,,,Central Park,http://imdb.com/title/tt0059448/,,,NA,NA,NA,NA,NA,NA
595,film,Mo' Better Blues,1990,Spike Lee,Brooklyn Bridge,40.70645752,-73.99727583,Brooklyn,NA,,,,Brooklyn,http://www.imdb.com/title/tt0100168/,,,NA,NA,NA,NA,NA,NA
596,film,New Jack City,1991,Mario Van Peebles,Grant's Tomb<br>Harlem<br>Manhattan,40.8127049,-73.96310449,Manhattan,NA,,,,Harlem,http://www.imdb.com/title/tt0102526/,,,NA,NA,NA,NA,NA,NA
597,film,"Next Stop, Greenwich Village",1975,Paul Mazursky,MacDougal St.<br>West Village<br>Manhattan,40.72936455,-74.00103629,Manhattan,NA,,,,West Village,http://imdb.com/title/tt0074963/,,,NA,NA,NA,NA,NA,NA
598,film,Nighthawks,1981,Bruce Malmuth,Roosevelt Island Tramway<br>Manhattan,40.75835906,-73.95694613,Manhattan,NA,,,,Roosevelt Island,http://www.imdb.com/title/tt0082817/,,,NA,NA,NA,NA,NA,NA
599,film,No Way to Treat a Lady,1968,Jack Smight,New York City Bus<br>Manhattan,40.72268923,-73.98893952,Manhattan,NA,,,,Lower East Side,http://www.imdb.com/title/tt0063356/,,,NA,NA,NA,NA,NA,NA
600,film,No Way to Treat a Lady,1968,Jack Smight,Carmines<br>200 W. 44th St. <br>Manhattan,40.75736758,-73.98670793,Manhattan,NA,,,,Times Square,http://www.imdb.com/title/tt0063356/,,,NA,NA,NA,NA,NA,NA
601,film,North by Northwest,1959,Alfred Hitchcock,Grand Central Terminal<br>Midtown<br>Manhattan,40.75310896,-73.9769876,Manhattan,NA,,,,Midtown,http://imdb.com/title/tt0053125/,,,NA,NA,NA,NA,NA,NA
602,film,On the Town,1949,"Stanley Donen,Gene Kelly",Little Italy<br>Manhattan,40.71813564,-73.99790883,Manhattan,NA,,,,Lower East Side,http://imdb.com/title/tt0041716/,,,NA,NA,NA,NA,NA,NA
603,film,On the Waterfront,1954,Elia Kazan,"Hoboken, New Jersey<br>View of Manhattan",40.74712691,-74.02497768,Manhattan,NA,,,,New York Harbor,http://imdb.com/title/tt0047296/,,,NA,NA,NA,NA,NA,NA
604,film,One Fine Day,1996,Michael Hoffman,Carnegie Deli<br>Seventh Ave. and W. 55th St.<br>Manhattan,40.7642,-73.981,Manhattan,NA,,,,Midtown,http://www.imdb.com/title/tt0117247/,,,NA,NA,NA,NA,NA,NA
605,film,One Fine Day,1996,Michael Hoffman,Near Bethesda Fountain<br>Central Park<br>Manhattan,40.77426124,-73.97052348,Manhattan,NA,,,,Central Park,http://www.imdb.com/title/tt0117247/,,,NA,NA,NA,NA,NA,NA
606,film,Other People's Money,1991,Norman Jewison,World Trade Center<br>Lower Manhattan,40.71292303,-74.01314914,Manhattan,NA,,,,Lower Manhattan,http://imdb.com/title/tt0102609/,,,NA,NA,NA,NA,NA,NA
607,film,Pieces of April,2003,Peter Hedges,Lower East Side<br>Manhattan,40.72057,-73.985953,Manhattan,NA,,,,Lower East Side,http://www.imdb.com/title/tt0311648/,,,NA,NA,NA,NA,NA,NA
608,film,Plaza Suite,1971,Arthur Hiller,Rockefeller Center<br>600 Fifth Ave.<br>Manhattan,40.757603,-73.978101,Manhattan,NA,,,,Midtown,http://www.imdb.com/title/tt0067589/,,,NA,NA,NA,NA,NA,NA
609,film,Prime,2005,Ben Younger,Dean and Deluca<br>SoHo<br>Manhattan,40.725367,-73.999702,Manhattan,NA,,,,SoHo,http://www.imdb.com/title/tt0387514/,,,NA,NA,NA,NA,NA,NA
610,film,Ragtime,1981,Milos Forman,E. 11th St. between Ave. A and Ave. B<br>East Village<br>Manhattan,40.72795799,-73.9806515,Manhattan,NA,,,,East Village,http://www.imdb.com/title/tt0082970/,,,NA,NA,NA,NA,NA,NA
611,film,Report to the Commissioner,1975,Milton Katselas,Winter Garden Theater<br>1634 Broadway<br>Manhattan,40.761528,-73.983802,Manhattan,NA,,,,Midtown,http://www.imdb.com/title/tt0073620/,,,NA,NA,NA,NA,NA,NA
612,film,Requiem for a Dream,2000,Darren Aronofsky,Coney Island Boardwalk<br>Brooklyn,40.57223197,-73.98395598,Brooklyn,NA,,,,Brooklyn,http://www.imdb.com/title/tt0180093/,,,NA,NA,NA,NA,NA,NA
613,film,Rosemary's Baby,1968,Roman Polanski,Fifth Ave. and E. 62nd St.<br>Upper East Side<br>Manhattan,40.7661,-73.9717,Manhattan,NA,,,,Upper East Side,http://www.imdb.com/title/tt0063522/,,,NA,NA,NA,NA,NA,NA
614,film,Rosemary's Baby,1968,Roman Polanski,"The Dakota<br>72nd St. and Central Park West<br>Manhattan
",40.77639,-73.976069,Manhattan,NA,,,,Upper West Side,http://www.imdb.com/title/tt0063522/,,,NA,NA,NA,NA,NA,NA
615,film,Rosemary's Baby,1968,Roman Polanski,"The Dakota<br>72nd St. and Central Park West<br>Manhattan
",40.77656053,-73.97615075,Manhattan,NA,,,,Upper West Side,http://www.imdb.com/title/tt0063522/,,,NA,NA,NA,NA,NA,NA
616,film,Saturday Night Fever,1977,John Badham,4th Ave. and 86th St.<br>Bay Ridge<br>Brooklyn,40.6228,-74.0284,Brooklyn,NA,,,,Brooklyn,http://www.imdb.com/title/tt0076666/,,,NA,NA,NA,NA,NA,NA
